{"version": 0.6, "generator": "Overpass API 0.7.62.5 1bd436f1", "osm3s": {"timestamp_osm_base": "2025-03-25T16:28:00Z", "copyright": "The data included in this document is from www.openstreetmap.org. The data is made available under ODbL."}, "elements": [{"type": "node", "id": 46823914, "lat": 48.1974616, "lon": 16.3208687, "tags": {"addr:city": "Wien", "addr:country": "AT", "addr:housenumber": "11", "addr:postcode": "1150", "addr:street": "Meiselstra\u00dfe", "amenity": "cafe", "indoor_seating": "yes", "name": "Meiselmarkt Cafe-Pub", "opening_hours": "Mo-Su 07:00-22:00", "outdoor_seating": "pedestrian_zone", "wheelchair": "limited"}}, {"type": "node", "id": 76515393, "lat": 48.2100533, "lon": 16.3707177, "tags": {"addr:city": "Wien", "addr:country": "AT", "addr:housenumber": "9", "addr:postcode": "1010", "addr:street": "Brandst\u00e4tte", "amenity": "cafe", "diet:vegetarian": "no", "indoor_seating": "yes", "name": "Korb", "name:en": "Korb (No.4)", "opening_hours": "Mo-Sa 08:00-24:00; PH 10:00-23:00; Su off", "operator": "Susanne Widl", "outdoor_seating": "yes", "phone": "+43-1-5337215", "website": "https://cafekorb.at/", "wheelchair": "limited", "wheelchair:description": "Stufe beim Eingang, Normales WC im Keller. Kein Behinderten-WC vorhanden.", "wikidata": "Q1025626", "wikipedia": "de:Caf\u00e9 Korb"}}, {"type": "node", "id": 115513011, "lat": 48.1968722, "lon": 16.3956178, "tags": {"addr:city": "Wien", "addr:country": "AT", "addr:housenumber": "116", "addr:postcode": "1030", "addr:street": "Landstra\u00dfer Hauptstra\u00dfe", "amenity": "cafe", "brand": "a\u00efda", "brand:wikidata": "Q794636", "brand:wikipedia": "de:Aida (Unternehmen)", "cuisine": "coffee_shop", "diet:vegetarian": "yes", "indoor_seating": "yes", "name": "a\u00efda", "opening_hours": "Mo-Fr 07:00-19:00; Sa 08:00-19:00; Su, PH 09:00-19:00; Jul-Aug Mo-Fr 07:00-18:00; Jul-Aug Sa 08:00-18:00; Jul-Aug Su, PH 09:00-18:00", "outdoor_seating": "no", "phone": "+43 1 8908988219", "takeaway": "yes", "website": "https://aida.at/", "wheelchair": "limited"}}, {"type": "node", "id": 146317846, "lat": 48.2271917, "lon": 16.3599021, "tags": {"amenity": "cafe", "cuisine": "cake", "diet:vegetarian": "yes", "indoor_seating": "yes", "name": "Kaffee-Konditorei Mayerhofer", "opening_hours": "Mo-Th 08:00-20:00; Fr-Su,PH off", "outdoor_seating": "yes"}}, {"type": "node", "id": 223580185, "lat": 48.2003108, "lon": 16.4026993, "tags": {"amenity": "cafe", "created_by": "Potlatch 0.9c", "name": "Cookie"}}, {"type": "node", "id": 244497023, "lat": 48.202615, "lon": 16.3587639, "tags": {"addr:city": "Wien", "addr:country": "AT", "addr:housenumber": "1", "addr:postcode": "1070", "addr:street": "Museumsplatz", "amenity": "cafe", "description:en": "One of the largest collections of modern Austrian art, featuring artists such as Egon Schiele, Gustav Klimt, Oskar Kokoschka and Richard Gerstl. (Source: Wikipedia:en)", "email": "Office@Cafe-Leopold.at", "museum": "art", "name": "Caf\u00e9 Leopold", "opening_hours": "Mo-We,Su 10:00-04:00; Th-Sa 10:00-04:00", "smoking": "separated", "toilets:wheelchair": "yes", "website": "http://www.cafe-leopold.at/", "wheelchair": "yes"}}, {"type": "node", "id": 244522889, "lat": 48.2093012, "lon": 16.3548608, "tags": {"addr:city": "Wien", "addr:country": "AT", "addr:housenumber": "2", "addr:postcode": "1080", "addr:street": "Josefst\u00e4dter Stra\u00dfe", "amenity": "cafe", "contact:email": "office@cafe-eiles.at", "contact:phone": "+43 1 405 3410", "contact:website": "http://www.cafe-eiles.at", "cuisine": "cake;breakfast;austrian;coffee_shop", "diet:vegan": "yes", "diet:vegetarian": "yes", "indoor_seating": "yes", "internet_access": "wlan", "internet_access:fee": "no", "internet_access:ssid": "Freewave", "name": "Caf\u00e9 Eiles", "name:ru": "\u041a\u0430\u0444\u0435 Eiles", "opening_hours": "Mo-Fr 07:00-24:00; PH,Sa,Su 08:00-24:00", "outdoor_seating": "yes", "phone": "+4314053410", "smoking": "outside", "toilets:wheelchair": "yes", "website": "https://www.cafe-eiles.at/", "wheelchair": "limited", "wheelchair:description": "Barrierfreier Zugang \u00fcber Nebeneingang in Lenaugasse", "wikidata": "Q15108546", "wikipedia": "de:Caf\u00e9 Eiles"}}, {"type": "node", "id": 249711653, "lat": 48.1947168, "lon": 16.3702567, "tags": {"addr:city": "Wien", "addr:country": "AT", "addr:housenumber": "17", "addr:postcode": "1040", "addr:street": "Taubstummengasse", "amenity": "cafe", "check_date": "2024-09-23", "check_date:opening_hours": "2024-09-23", "name": "Cafe U1", "opening_hours": "Tu-Fr 17:30-24:00"}}, {"type": "node", "id": 249733140, "lat": 48.2362005, "lon": 16.3709174, "tags": {"amenity": "cafe", "name": "Pink Pepper", "wheelchair": "limited"}}, {"type": "node", "id": 256669740, "lat": 48.2068028, "lon": 16.3430955, "tags": {"addr:city": "Wien", "addr:country": "AT", "addr:housenumber": "95", "addr:postcode": "1070", "addr:street": "Schottenfeldgasse", "amenity": "cafe", "contact:email": "cafe.erdgeschoss@gmail.com", "contact:facebook": "https://www.facebook.com/ErdgeschossWien", "contact:phone": "+43 19445274", "cuisine": "turkish", "diet:vegan": "yes", "diet:vegetarian": "only", "indoor_seating": "yes", "name": "Caf\u00e9 Erdgeschoss", "opening_hours": "Mo-Sa 17:00-24:00; Su,PH 10:30-17:00", "outdoor_seating": "yes", "smoking": "outside", "wheelchair": "limited"}}, {"type": "node", "id": 256669781, "lat": 48.2020967, "lon": 16.3489247, "tags": {"addr:city": "Wien", "addr:country": "AT", "addr:housenumber": "39", "addr:postcode": "1070", "addr:street": "Neubaugasse", "amenity": "cafe", "diet:vegetarian": "yes", "indoor_seating": "yes", "name": "Caff\u00e8 Latte", "opening_hours": "Su-Th,PH 08:00-24:00, Fr,Sa 08:00-01:00", "outdoor_seating": "no", "smoking": "isolated", "website": "https://www.caffelatte.eu/", "wheelchair": "no"}}, {"type": "node", "id": 258051472, "lat": 48.2154323, "lon": 16.303154, "tags": {"amenity": "cafe", "created_by": "Potlatch 0.10b", "name": "Ottakringer Sportkantine", "source": "foot survey"}}, {"type": "node", "id": 259640958, "lat": 48.2186915, "lon": 16.3735819, "tags": {"addr:city": "Wien", "addr:country": "AT", "addr:housenumber": "8", "addr:postcode": "1020", "addr:street": "Schiffamtsgasse", "air_conditioning": "yes", "amenity": "cafe", "diet:halal": "no", "diet:kosher": "no", "diet:vegan": "yes", "diet:vegetarian": "yes", "indoor_seating": "yes", "name": "Kaffeeamt", "opening_hours": "Mo,We-Fr 08:00-17:30; Sa,Su,PH 09:00-17:30; Tu off", "outdoor_seating": "yes", "smoking": "outside"}}, {"type": "node", "id": 264606980, "lat": 48.1983004, "lon": 16.3989407, "tags": {"addr:city": "Wien", "addr:country": "AT", "addr:postcode": "1030", "amenity": "cafe", "check_date:opening_hours": "2023-10-10", "name": "Gmiatliches Eck", "opening_hours": "Mo-Fr 07:00-22:00; Sa 08:00-12:00"}}, {"type": "node", "id": 265002408, "lat": 48.1908244, "lon": 16.2709478, "tags": {"addr:city": "Wien", "addr:country": "AT", "addr:housenumber": "138", "addr:postcode": "1130", "addr:street": "Auhofstra\u00dfe", "amenity": "cafe", "diet:vegetarian": "yes", "name": "B\u00e4ckerei Schwarz", "opening_hours": "Mo-Sa 06:00-19:00; Su 08:00-19:00", "payment:electronic_purses": "yes", "shop": "bakery", "smoking": "no", "toilets:wheelchair": "no", "wheelchair": "yes"}}, {"type": "node", "id": 265002900, "lat": 48.1881333, "lon": 16.2670772, "tags": {"amenity": "cafe", "name": "Felber", "shop": "bakery", "smoking": "no", "wheelchair": "yes"}}, {"type": "node", "id": 269209054, "lat": 48.2080149, "lon": 16.3720208, "tags": {"addr:city": "Wien", "addr:country": "AT", "addr:housenumber": "1", "addr:postcode": "1010", "addr:street": "Singerstra\u00dfe", "amenity": "cafe", "brand": "a\u00efda", "brand:wikidata": "Q794636", "check_date": "2022-09-09", "cuisine": "coffee_shop", "indoor_seating": "yes", "man_made": "surveillance", "name": "a\u00efda", "opening_hours": "Mo-Su 07:00-23:00", "outdoor_seating": "yes", "phone": "+43 1 890 89 88 210", "surveillance": "indoor", "takeaway": "yes", "wheelchair": "limited"}}, {"type": "node", "id": 269904458, "lat": 48.1652336, "lon": 16.3149044, "tags": {"addr:city": "Wien", "addr:country": "AT", "addr:housenumber": "50", "addr:postcode": "1120", "addr:street": "Hetzendorfer Stra\u00dfe", "amenity": "cafe", "check_date": "2023-07-05", "cuisine": "austrian;breakfast", "diet:vegetarian": "yes", "food:cake": "yes", "food:ice_cream": "yes @ summer", "indoor_seating": "yes", "internet_access": "wlan", "internet_access:fee": "no", "lunch": "menu", "name": "Housecafe", "opening_hours": "Mo-Fr 07:00-20:00; Sa 10:00-14:00; PH off", "outdoor_seating": "yes", "website": "https://www.housecafe.at/", "website:menu": "https://www.housecafe.at/fr%C3%BChst%C3%BCckskarte/"}}, {"type": "node", "id": 279452021, "lat": 48.1901375, "lon": 16.3716892, "tags": {"amenity": "cafe", "check_date": "2024-09-09", "cuisine": "regional", "indoor_seating": "yes", "name": "Cafe Frey", "opening_hours": "Mo-Fr 07:00-21:00, Sa,Su,PH 09:00-21:00", "outdoor_seating": "no", "payment:cards": "yes", "wheelchair": "limited"}}, {"type": "node", "id": 288187563, "lat": 48.2262324, "lon": 16.3449489, "tags": {"addr:city": "Wien", "addr:country": "AT", "addr:housenumber": "108", "addr:postcode": "1180", "addr:street": "W\u00e4hringer Stra\u00dfe", "alt_name": "Konditorei Oberlaa", "amenity": "cafe", "check_date:opening_hours": "2024-08-06", "diet:vegetarian": "yes", "indoor_seating": "yes", "name": "Oberlaa", "opening_hours": "Mo-Su 08:30-19:00", "outdoor_seating": "yes", "smoking": "no", "smoking:outside": "yes", "website": "https://oberlaa-wien.at/standorte/standort-wahring/", "wheelchair": "yes"}}, {"type": "node", "id": 289642463, "lat": 48.1974209, "lon": 16.3239493, "tags": {"addr:city": "Wien", "addr:country": "AT", "addr:housenumber": "3", "addr:postcode": "1150", "addr:street": "Kardinal-Rauscher-Platz", "amenity": "cafe", "check_date": "2023-07-27", "name": "Antique", "opening_hours": "Mo-Th 12:00-24:00, Fr-Su 12:00-02:00", "outdoor_seating": "yes", "phone": "+43 664 5032296", "wheelchair": "no"}}, {"type": "node", "id": 289642464, "lat": 48.1980768, "lon": 16.3198076, "tags": {"addr:city": "Wien", "addr:country": "AT", "addr:hamlet": "Meiselmarkt", "addr:housenumber": "G5", "addr:postcode": "1150", "addr:street": "Meiselstra\u00dfe", "amenity": "cafe", "cuisine": "cake", "fixme": "Lage Adresse im Meiselmarkt", "level": "-2", "name": "Cafe-Konditorei Angelmayer", "opening_hours": "Mo-Fr 07:00-18:00; Sa 07:00-13:00", "website": "http://www.konditorei-angelmayer.at", "wheelchair": "yes"}}, {"type": "node", "id": 289942099, "lat": 48.1513207, "lon": 16.2672065, "tags": {"addr:city": "Wien", "addr:housenumber": "10", "addr:postcode": "1230", "addr:street": "Maurer Hauptplatz", "amenity": "cafe", "check_date:opening_hours": "2025-02-11", "cuisine": "ice_cream;coffee", "name": "Das Eis", "opening_hours": "Mar-Apr: Mo-Su,PH 10:00-20:00; May-Aug: Mo-Su,PH 10:00-22:00; Sep: Mo-Su,PH 10:00-20:00", "outdoor_seating": "yes", "phone": "+43 1 889 34 98", "website": "https://www.daseis.at/", "wheelchair": "limited"}}, {"type": "node", "id": 294507916, "lat": 48.2402074, "lon": 16.3550472, "tags": {"amenity": "cafe", "check_date": "2024-04-02", "diet:vegan": "yes", "diet:vegetarian": "yes", "indoor_seating": "yes", "name": "Caf\u00e9 Oberd\u00f6bling", "opening_hours": "Mo-Fr 08:00-19:00; Sa,Su 08:00-18:00", "outdoor_seating": "yes", "owner": "Hans Waitschacher", "payment:cash": "yes", "payment:credit_cards": "yes", "payment:debit_cards": "yes", "website": "https://cafe-konditorei-oberdoebling.at/", "wheelchair": "yes"}}, {"type": "node", "id": 295413442, "lat": 48.2235831, "lon": 16.3467208, "tags": {"addr:city": "Wien", "addr:country": "AT", "addr:housenumber": "1", "addr:postcode": "1180", "addr:street": "Staudgasse", "amenity": "cafe", "diet:gluten_free": "yes", "diet:vegan": "yes", "diet:vegetarian": "yes", "indoor_seating": "yes", "name": "Schopenhauer", "opening_hours": "Mo-Sa 08:00-00:00; Su 08:00-22:00", "outdoor_seating": "yes", "phone": "+43 1 406 32 88", "website": "https://www.cafeschopenhauer.at/", "wheelchair": "no"}}, {"type": "node", "id": 297160436, "lat": 48.1898765, "lon": 16.3207522, "tags": {"addr:floor": "0", "addr:housenumber": "61", "addr:postcode": "1150", "addr:street": "Schwendergasse", "amenity": "cafe", "check_date": "2023-04-21", "cuisine": "russian", "delivery": "yes", "name": "Pelmen Cafe", "opening_hours": "Mo-Sa 10:00-20:00; Su 12:00-20:00", "outdoor_seating": "no", "smoking": "no", "takeaway": "yes", "wheelchair": "no"}}, {"type": "node", "id": 297478688, "lat": 48.1954827, "lon": 16.3693761, "tags": {"addr:city": "Wien", "addr:country": "AT", "addr:housenumber": "7", "addr:postcode": "1040", "addr:street": "Favoritenstra\u00dfe", "amenity": "cafe", "contact:email": "info@carlludwig.cafe", "contact:phone": "+43 664 4972665", "contact:website": "https://www.carlludwig.cafe", "indoor_seating": "16", "internet_access": "wlan", "internet_access:fee": "no", "name": "Carl Ludwig Cafe", "opening_hours": "Mo-Fr 07:30-19:00; Sa 10:00-17:00; Su,PH off", "outdoor_seating": "20", "smoking": "no", "wheelchair": "limited"}}, {"type": "node", "id": 298553659, "lat": 48.2308783, "lon": 16.3288835, "tags": {"addr:city": "Wien", "addr:housenumber": "2", "addr:postcode": "1180", "addr:street": "Gersthofer Stra\u00dfe", "amenity": "cafe", "cuisine": "regional", "indoor_seating": "yes", "internet_access": "wlan", "internet_access:fee": "no", "name": "Cafe Mocca", "opening_hours": "Mo-Su 08:00-01:00", "outdoor_seating": "garden", "phone": "+43 1 890 35 93", "website": "https://www.cafemocca.eu/", "wheelchair": "limited"}}, {"type": "node", "id": 308877404, "lat": 48.1690211, "lon": 16.369634, "tags": {"amenity": "cafe", "name": "Carno", "wheelchair": "limited"}}, {"type": "node", "id": 311283080, "lat": 48.2243753, "lon": 16.3507623, "tags": {"addr:housenumber": "4", "addr:street": "Lustkandlgasse", "amenity": "cafe", "check_date": "2024-12-07", "check_date:opening_hours": "2024-12-07", "indoor_seating": "yes", "name": "Grand Cafe Am Alsergrund", "opening_hours:signed": "no", "outdoor_seating": "yes", "payment:cards": "no", "payment:cash": "yes", "payment:credit_cards": "no", "payment:debit_cards": "no", "sport": "9pin", "wheelchair": "yes"}}, {"type": "node", "id": 315986941, "lat": 48.2080283, "lon": 16.3491324, "tags": {"addr:city": "Wien", "addr:country": "AT", "addr:housenumber": "24", "addr:postcode": "1080", "addr:street": "Strozzigasse", "amenity": "cafe", "contact:website": "http://www.strozzi.at/", "diet:vegetarian": "yes", "indoor_seating": "yes", "name": "Strozzi", "opening_hours": "Mo 08:30-22:00; Tu-Fr 08:30-23:00; Sa 09:00-15:00", "outdoor_seating": "yes", "smoking": "yes", "wheelchair": "limited"}}, {"type": "node", "id": 317767352, "lat": 48.2155314, "lon": 16.3612193, "tags": {"addr:city": "Wien", "addr:country": "AT", "addr:housenumber": "6-8", "addr:postcode": "1090", "addr:street": "W\u00e4hringer Stra\u00dfe", "amenity": "cafe", "email": "office@cafestein.at", "indoor_seating": "yes", "man_made": "surveillance", "name": "Cafe Stein", "opening_hours": "Mo-We 08:00-24:00, Th-Sa 08:00-01:00, Su,PH 09:00-22:00", "outdoor_seating": "yes", "phone": "+43 1 3197241", "smoking": "separated", "surveillance": "indoor", "website": "https://www.cafestein.at/", "wheelchair": "no"}}, {"type": "node", "id": 317815743, "lat": 48.1998385, "lon": 16.3611697, "tags": {"addr:city": "Wien", "addr:country": "AT", "addr:housenumber": "11", "addr:postcode": "1060", "addr:street": "Gumpendorfer Stra\u00dfe", "amenity": "cafe", "check_date": "2023-05-26", "diet:vegetarian": "yes", "email": "melange@cafesperl.at", "fax": "+43 1 5864158", "indoor_seating": "yes", "name": "Cafe Sperl", "name:en": "Cafe Sperl ( No.2)", "name:ja": "\u30b7\u30e5\u30da\u30fc\u30eb", "opening_hours": "Mo-Sa 07:00-22:00; Su 10:00-20:00", "outdoor_seating": "yes", "phone": "+43 1 5864158", "smoking": "no", "website": "https://www.cafesperl.at", "wheelchair": "yes", "wikidata": "Q877553", "wikipedia": "de:Caf\u00e9 Sperl"}}, {"type": "node", "id": 318023658, "lat": 48.2145962, "lon": 16.3580946, "tags": {"amenity": "cafe", "diet:vegetarian": "yes", "indoor_seating": "yes", "name": "Cafeteria Maximilian", "opening_hours": "Mo-Sa 08:30-23:00; Su 09:00-23:00", "outdoor_seating": "yes", "wheelchair": "no"}}, {"type": "node", "id": 318297340, "lat": 48.2096822, "lon": 16.3554887, "tags": {"addr:city": "Wien", "addr:country": "AT", "addr:housenumber": "6", "addr:postcode": "1010", "addr:street": "Landesgerichtsstra\u00dfe", "amenity": "cafe", "check_date": "2023-04-16", "contact:email": "cafe.bendl@gmail.com", "contact:phone": "+43 1 8904105", "contact:website": "https://bendl.wordpress.com/", "internet_access": "no", "name": "Caf\u00e9 Bendl", "opening_hours": "Mo-Th 08:00-02:00; Fr 08:00-04:00; Sa 18:00-04:00; Su 18:00-02:00", "smoking": "yes", "wheelchair": "no"}}, {"type": "node", "id": 319734659, "lat": 48.2103671, "lon": 16.3653873, "tags": {"addr:city": "Wien", "addr:country": "AT", "addr:postcode": "1010", "addr:street": "Herrengasse", "air_conditioning": "yes", "amenity": "cafe", "cuisine": "german", "description:en": "One of the classic Vienna coffee houses. Queues frequent.", "indoor_seating": "yes", "name": "Caf\u00e9 Central", "name:ja": "\u30ab\u30d5\u30a7 \u30c4\u30a7\u30f3\u30c8\u30e9\u30eb", "name:zh": "\u4e2d\u592e\u5496\u5561\u9928", "opening_hours": "Mo-Sa 08:00-21:00; PH,Su 10:00-21:00", "outdoor_seating": "yes", "phone": "+43 (1) 5333764-24", "ref:vatin": "ATU66139813", "tourism": "attraction", "website": "https://cafecentral.wien", "wheelchair": "limited", "wheelchair:description": "Aufzug \u00fcber K\u00fcche bzw. Seiteneingang Palais Ferstel mit Personal, Behinderten-WC im Palais Ferstel-Trakt", "wikidata": "Q694757", "wikipedia": "de:Caf\u00e9 Central"}}, {"type": "node", "id": 319735103, "lat": 48.2079556, "lon": 16.3698053, "tags": {"addr:city": "Wien", "addr:country": "AT", "addr:housenumber": "6", "addr:postcode": "1010", "addr:street": "Dorotheergasse", "amenity": "cafe", "check_date": "2023-06-24", "indoor_seating": "yes", "name": "Caf\u00e9 Hawelka", "name:zh": "\u54c8\u7dad\u5361\u5496\u5561\uff08No.3\uff09", "official_name": "Caf\u00e9 Leopold Hawelka", "outdoor_seating": "yes", "payment:cash": "yes", "phone": "+431 512 38 93", "website": "https://www.hawelka.at/", "wheelchair": "limited", "wheelchair:description": "Zwei kleine Stufen-Abs\u00e4tze beim Eingang, kein Rollstuhl-WC", "wikidata": "Q494438", "wikipedia": "de:Caf\u00e9 Hawelka"}}, {"type": "node", "id": 321710144, "lat": 48.1428398, "lon": 16.4026177}, {"type": "node", "id": 323058537, "lat": 48.2496444, "lon": 16.4428967, "tags": {"addr:city": "Wien", "addr:country": "AT", "addr:housenumber": "137", "addr:postcode": "1220", "addr:street": "Wagramer Stra\u00dfe", "amenity": "cafe", "cuisine": "regional", "name": "Falk", "opening_hours": "Su-Th 08:00-01:00, Fr-Sa 08:00-03:00", "opening_hours:covid19": "Mo-So 10:00-14:00", "outdoor_seating": "yes", "phone": "+43 1 2033125", "website": "https://www.cafefalk.at/", "wheelchair": "no"}}, {"type": "node", "id": 323243151, "lat": 48.1370939, "lon": 16.3029029, "tags": {"air_conditioning": "yes", "amenity": "cafe", "check_date": "2023-07-16", "check_date:opening_hours": "2021-11-15", "created_by": "Potlatch 0.10f", "highchair": "yes", "name": "Der Mann", "opening_hours": "Mo-Fr 05:30-18:00; Sa,Su,PH 07:00-18:00", "outdoor_seating": "yes"}}, {"type": "node", "id": 323661731, "lat": 48.2246086, "lon": 16.3537844, "tags": {"addr:city": "Wien", "addr:country": "AT", "addr:housenumber": "2", "addr:postcode": "1090", "addr:street": "Fuchsthallergasse", "amenity": "cafe", "diet:vegetarian": "no", "indoor_seating": "yes", "name": "Cafe Spitt", "opening_hours": "Mo-Fr 18:00-24:00", "outdoor_seating": "yes", "website": "http://www.spitt.at"}}, {"type": "node", "id": 325140051, "lat": 48.1962072, "lon": 16.3400519, "tags": {"addr:city": "Wien", "addr:country": "AT", "addr:housenumber": "128", "addr:postcode": "1070", "addr:street": "Mariahilfer Stra\u00dfe", "amenity": "cafe", "check_date": "2024-09-01", "diet:vegan": "no", "diet:vegetarian": "yes", "indoor_seating": "yes", "name": "Caf\u00e9 Westend", "opening_hours": "Mo-Su 08:00-23:00", "outdoor_seating": "yes", "phone": "+43 (1) 5233183", "toilets:wheelchair": "no", "website": "https://www.cafewestend.wien/", "wheelchair": "limited", "wikidata": "Q254637", "wikipedia": "de:Caf\u00e9 Westend"}}, {"type": "node", "id": 329464821, "lat": 48.2126268, "lon": 16.3737448, "tags": {"addr:city": "Wien", "addr:country": "AT", "addr:housenumber": "1", "addr:postcode": "1010", "addr:street": "Salzgries", "amenity": "cafe", "check_date": "2023-02-07", "contact:fax": "+43 1 5357180", "contact:phone": "+43 1 5358775", "diet:vegetarian": "yes", "indoor_seating": "yes", "name": "Billardcafe K\u00f6\u00f6", "opening_hours": "Mo-Th 10:00-02:00; Fr-Sa 10:00-04:00; Su,PH 12:00-02:00", "outdoor_seating": "parklet", "sport": "billiards", "website": "http://billardcafe.at", "wheelchair": "no"}}, {"type": "node", "id": 333052979, "lat": 48.2288403, "lon": 16.3691001, "tags": {"amenity": "cafe", "brand": "a\u00efda", "brand:wikidata": "Q794636", "cuisine": "coffee_shop", "diet:vegetarian": "yes", "indoor_seating": "yes", "name": "a\u00efda", "opening_hours": "Mo-Sa 08:00-19:00; Sa, PH 09:00-18:30", "outdoor_seating": "yes", "takeaway": "yes", "wheelchair": "limited"}}, {"type": "node", "id": 333367017, "lat": 48.2176565, "lon": 16.341637, "tags": {"addr:city": "Wien", "addr:country": "AT", "addr:housenumber": "3", "addr:postcode": "1180", "addr:street": "W\u00e4hringer G\u00fcrtel", "amenity": "cafe", "cuisine": "ice_cream", "name": "Eissalon am G\u00fcrtel", "old_name": "Zanoni & Facincani", "operator": "MAM Gastronomiebetrieb GmbH", "shop": "ice_cream"}}, {"type": "node", "id": 333539957, "lat": 48.2304002, "lon": 16.3541445, "tags": {"addr:city": "Wien", "addr:country": "AT", "addr:housenumber": "69", "addr:postcode": "1090", "addr:street": "Nussdorfer Stra\u00dfe", "amenity": "cafe", "cuisine": "cake", "name": "Kaffee Konditorei Monarchie", "opening_hours": "Mo-Sa 07:00-22:00, PH,Su 08:00-22:00", "operator": "Klambauer Ges.m.b.H", "phone": "+43 1 319 70 72", "website": "http://www.kaffee-monarchie.at/", "wheelchair": "no"}}, {"type": "node", "id": 333696995, "lat": 48.2364894, "lon": 16.3843482, "tags": {"addr:city": "Wien", "addr:housenumber": "20", "addr:postcode": "1200", "addr:street": "Donaueschingenstra\u00dfe", "amenity": "cafe", "check_date:opening_hours": "2024-12-01", "contact:phone": "+43 699 19437493", "indoor_seating": "yes", "name": "Cafe Delphin", "opening_hours": "Mo-Fr 07:30-20:00; Sa 07:30-18:00", "outdoor_seating": "yes", "wheelchair": "yes"}}, {"type": "node", "id": 334497913, "lat": 48.2549346, "lon": 16.3658155, "tags": {"amenity": "cafe", "cuisine": "ice_cream", "description": "italian ice cream and cafe", "indoor_seating": "yes", "name": "Fronza", "opening_hours": "Mo-Fr 12:00-22:00; Sa,Su 11:00-22:00", "outdoor_seating": "sidewalk"}}, {"type": "node", "id": 334793287, "lat": 48.1871017, "lon": 16.2989586, "tags": {"addr:city": "Wien", "addr:country": "AT", "addr:housenumber": "1", "addr:postcode": "1130", "addr:street": "Dommayergasse", "alt_name": "Alt-Wiener Kaffeehaus Oberlaa", "amenity": "cafe", "check_date:opening_hours": "2023-09-05", "diet:vegetarian": "yes", "email": "Dommayer@Oberlaa-Wien.at", "indoor_seating": "yes", "name": "Caf\u00e9 Dommayer", "opening_hours": "Mo-Su,PH 07:30-20:30", "outdoor_seating": "yes", "phone": "+43 1 87754650", "website": "https://oberlaa-wien.at/standorte/standort-dommayer/", "wheelchair": "yes", "wheelchair:description": "WC nur \u00fcber 2 Stufen erreichbar < 7cm", "wikidata": "Q1025590", "wikipedia": "de:Caf\u00e9 Dommayer"}}, {"type": "node", "id": 334800902, "lat": 48.1870946, "lon": 16.3026844, "tags": {"addr:city": "Wien", "addr:country": "AT", "addr:housenumber": "8", "addr:postcode": "1130", "addr:street": "Hietzinger Hauptstra\u00dfe", "amenity": "cafe", "diet:vegetarian": "yes", "indoor_seating": "yes", "name": "Della Lucia", "opening_hours": "11:00-23:00", "outdoor_seating": "yes", "toilets:wheelchair": "no", "wheelchair": "yes", "wheelchair:description": "Gehsteig-Terasse nicht barrierefrei. Aber im Lokal Wintergarten barrierefrei."}}, {"type": "node", "id": 337468339, "lat": 48.2480884, "lon": 16.3620824, "tags": {"amenity": "cafe", "diet:vegetarian": "yes", "name": "Pezis Cafe-Eck", "opening_hours": "Mo-Fr 09:00-22:00; Sa,Su,PH 09:00-22:00"}}, {"type": "node", "id": 338470684, "lat": 48.2179296, "lon": 16.3770997, "tags": {"addr:city": "Wien", "addr:country": "AT", "addr:housenumber": "3", "addr:postcode": "1020", "addr:street": "Haidgasse", "amenity": "cafe", "contact:email": "lokal@einfahrt.wien", "contact:phone": "+43 1 942 68 86", "contact:website": "http://einfahrt.wien", "indoor_seating": "yes", "name": "Caf\u00e9 Einfahrt", "opening_hours": "Mo-Fr 10:00-25:00; Sa, PH 08:00-25:00; Su 08:00-23:00", "outdoor_seating": "yes", "smoking": "separated", "wheelchair": "limited"}}, {"type": "node", "id": 338470689, "lat": 48.217096, "lon": 16.3806455, "tags": {"amenity": "cafe", "name": "Naschk\u00e4tzchen", "opening_hours:signed": "no", "smoking": "separated", "wheelchair": "no"}}, {"type": "node", "id": 338525606, "lat": 48.1946601, "lon": 16.4063771, "tags": {"addr:city": "Wien", "addr:country": "AT", "addr:housenumber": "24a", "addr:postcode": "1030", "addr:street": "Schlachthausgasse", "amenity": "cafe", "check_date": "2024-11-10", "indoor_seating": "yes", "name": "libelle", "outdoor_seating": "veranda", "wheelchair": "no"}}, {"type": "node", "id": 339910920, "lat": 48.2115624, "lon": 16.3614497, "tags": {"addr:city": "Wien", "addr:country": "AT", "addr:housenumber": "4", "addr:postcode": "1010", "addr:street": "Universit\u00e4tsring", "amenity": "cafe", "check_date": "2022-09-10", "cuisine": "coffee_shop;cake;tea;bistro", "diet:vegan": "yes", "diet:vegetarian": "yes", "email": "cafe@landtmann.at", "heritage": "2", "heritage:operator": "bda", "indoor_seating": "yes", "internet_access": "wlan", "name": "Caf\u00e9 Landtmann", "opening_hours": "Mo-Su 07:30-24:00", "operator": "Familie Querfeld", "outdoor_seating": "yes", "phone": "+43124100120", "ref:at:bda": "30701", "smoking": "no", "toilets:wheelchair": "yes", "website": "https://www.landtmann.at/", "wheelchair": "yes", "wikidata": "Q264318", "wikipedia": "de:Caf\u00e9 Landtmann"}}, {"type": "node", "id": 341255640, "lat": 48.2201284, "lon": 16.3448876, "tags": {"amenity": "cafe", "brand": "Anker", "brand:wikidata": "Q557116", "brand:wikipedia": "de:Ankerbrot", "level": "5", "name": "Anker", "shop": "bakery", "wheelchair": "yes"}}, {"type": "node", "id": 342306706, "lat": 48.2061401, "lon": 16.3859752, "tags": {"amenity": "cafe", "check_date:opening_hours": "2023-12-14", "dispensing": "yes", "man_made": "surveillance", "name": "Cafe & Restaurant Ascot", "opening_hours": "Mo-Su 08:00-24:00", "surveillance": "indoor", "wheelchair": "no"}}, {"type": "node", "id": 342306957, "lat": 48.2058773, "lon": 16.3858227, "tags": {"addr:city": "Wien", "addr:country": "AT", "addr:housenumber": "11", "addr:postcode": "1030", "addr:street": "Invalidenstra\u00dfe", "amenity": "cafe", "brand": "Starbucks", "brand:wikidata": "Q37158", "brand:wikipedia": "en:Starbucks", "cuisine": "coffee_shop", "dispensing": "yes", "indoor_seating": "yes", "internet_access": "wlan", "name": "Starbucks", "official_name": "Starbucks Coffee", "opening_hours": "Mo-Fr 06:00-21:00; Sa,Su 07:00-21:00", "outdoor_seating": "no", "takeaway": "yes", "toilets:wheelchair": "yes", "wheelchair": "yes"}}, {"type": "node", "id": 344481901, "lat": 48.2251144, "lon": 16.3618977, "tags": {"amenity": "cafe", "brand": "a\u00efda", "brand:wikidata": "Q794636", "check_date:opening_hours": "2024-08-18", "cuisine": "cake", "indoor_seating": "yes", "name": "a\u00efda", "opening_hours:signed": "no", "outdoor_seating": "no", "takeaway": "yes", "website": "https://aida.at/", "wheelchair": "no"}}, {"type": "node", "id": 344666078, "lat": 48.2067334, "lon": 16.3832461, "tags": {"addr:city": "Wien", "addr:country": "AT", "addr:housenumber": "1", "addr:postcode": "1030", "addr:street": "Landstra\u00dfer Hauptstra\u00dfe", "amenity": "cafe", "check_date:opening_hours": "2023-04-30", "cuisine": "cake", "indoor_seating": "yes", "name": "Kurkonditorei Oberlaa", "opening_hours": "Mo-Su 08:00-19:00", "outdoor_seating": "sidewalk", "phone": "+43 1 71527400", "toilets:wheelchair": "no", "website": "https://oberlaa-wien.at/", "wheelchair": "limited"}}, {"type": "node", "id": 344872252, "lat": 48.255583, "lon": 16.3985512, "tags": {"addr:city": "Wien", "addr:country": "AT", "addr:housenumber": "10-12", "addr:postcode": "1210", "addr:street": "Franz-Jonas-Platz", "amenity": "cafe", "check_date": "2023-08-17", "internet_access": "wlan", "name": "Caf\u00e9 Jonas", "opening_hours": "Mo-Sa 09:00-24:00;PH Su 09:00-23:00", "smoking": "isolated", "sport": "table_soccer", "toilets:wheelchair": "no", "website": "https://www.jonas-lokal.at/", "wheelchair": "yes"}}, {"type": "node", "id": 344923915, "lat": 48.2058089, "lon": 16.3860033, "tags": {"addr:city": "Wien", "addr:country": "AT", "addr:housenumber": "3", "addr:postcode": "1030", "addr:street": "Landstra\u00dfer Hauptstra\u00dfe", "amenity": "cafe", "check_date:opening_hours": "2024-06-13", "name": "Eduscho / Tchibo", "opening_hours": "Mo-Fr 08:30-18:30; Sa 09:00-17:00", "shop": "coffee", "wheelchair": "yes"}}, {"type": "node", "id": 344927480, "lat": 48.2051099, "lon": 16.3871215, "tags": {"amenity": "cafe", "name": "Koffie", "opening_hours": "Mo-Fr 08:00-19:00; Sa 10:00-19:00", "wheelchair": "no"}}, {"type": "node", "id": 344929843, "lat": 48.2742908, "lon": 16.404629, "tags": {"amenity": "cafe", "name": "MAXX Cafe-Restaurant"}}, {"type": "node", "id": 344931801, "lat": 48.2769351, "lon": 16.4075968, "tags": {"addr:city": "Wien", "addr:country": "AT", "addr:housenumber": "7", "addr:postcode": "1210", "addr:street": "Frauenstiftgasse", "amenity": "cafe", "check_date:opening_hours": "2024-06-10", "cuisine": "cake", "name": "Eyl\u00fcl B\u00e4ckerei, Konditorei & Cafe", "opening_hours:signed": "no", "operator": "Eyl\u00fcl", "shop": "bakery"}}, {"type": "node", "id": 345298530, "lat": 48.2116935, "lon": 16.3762952, "tags": {"addr:housenumber": "24", "addr:street": "Rotenturmstra\u00dfe", "amenity": "cafe", "check_date": "2023-07-02", "cuisine": "italian", "diet:vegetarian": "yes", "email": "kulinaria@gmx.at", "indoor_seating": "yes", "internet_access": "wlan", "name": "Castelletto", "opening_hours": "Mo-Sa 07:00-24:00; Su 08:00-24:00; PH 08:00-24:00", "outdoor_seating": "yes", "payment:credit_cards": "yes", "payment:debit_cards": "yes", "phone": "+43 1 535 44 83", "toilets": "yes", "toilets:wheelchair": "no", "website": "https://www.castelletto.at/", "wheelchair": "limited"}}, {"type": "node", "id": 345623344, "lat": 48.202342, "lon": 16.3511758, "tags": {"addr:city": "Wien", "addr:country": "AT", "addr:housenumber": "46", "addr:postcode": "1070", "addr:street": "Siebensterngasse", "amenity": "cafe", "condition": "good", "contact:phone": "+43-1-236 3225", "cuisine": "oriental;breakfast;shisha", "internet_access": "wlan", "internet_access:ssid": "Freewave", "name": "Marla", "old_name": "Berfin", "opening_hours": "Fr-Sa 10:00-02:00; Su-Mo 09:00-24:00", "outdoor_seating": "yes", "payment:cash": "yes", "payment:credit_cards": "no", "payment:debit_cards": "no", "smoking": "isolated", "start_date": "2005-10", "wheelchair": "no"}}, {"type": "node", "id": 345806381, "lat": 48.198626, "lon": 16.3632395}, {"type": "node", "id": 345806382, "lat": 48.1986599, "lon": 16.3633113}, {"type": "node", "id": 345806384, "lat": 48.198661, "lon": 16.3633539}, {"type": "node", "id": 345806385, "lat": 48.1986275, "lon": 16.3633907}, {"type": "node", "id": 345806388, "lat": 48.1985983, "lon": 16.3632242}, {"type": "node", "id": 345806389, "lat": 48.1985641, "lon": 16.3632568}, {"type": "node", "id": 345806391, "lat": 48.1985648, "lon": 16.3633004}, {"type": "node", "id": 345806393, "lat": 48.1986019, "lon": 16.3633777}, {"type": "node", "id": 347627120, "lat": 48.2766649, "lon": 16.4122545, "tags": {"amenity": "cafe", "created_by": "Potlatch 0.10f", "name": "Call Center / Internet Cafe MENNA"}}, {"type": "node", "id": 349242464, "lat": 48.2094529, "lon": 16.3576889, "tags": {"addr:city": "Wien", "addr:country": "AT", "addr:housenumber": "8", "addr:postcode": "1010", "addr:street": "Rathausplatz", "amenity": "cafe", "email": "rathausplatz@sluka.at", "internet_access": "wlan", "internet_access:fee": "no", "name": "Conditorei Sluka", "name:etymology": "Wilhelm Josef Sluka", "name:etymology:wikidata": "Q60822451", "opening_hours": "Mo-Fr 08:00-19:00;Sa 08:00-17:30;Su 10:00-17:30", "phone": "+43 1 4057172", "shop": "pastry", "smoking": "no", "start_date": "1891", "website": "https://www.sluka.at/", "wheelchair": "no", "wikidata": "Q2573421", "wikipedia": "de:Wilhelm J. Sluka"}}, {"type": "node", "id": 351628384, "lat": 48.2002468, "lon": 16.3611169, "tags": {"addr:city": "Wien", "addr:country": "AT", "addr:housenumber": "10-12", "addr:postcode": "1060", "addr:street": "Gumpendorfer Stra\u00dfe", "amenity": "cafe", "check_date": "2023-05-01", "diet:vegan": "yes", "diet:vegetarian": "yes", "email": "phil@phil.love", "name": "phil", "opening_hours": "Mo 15:00-23:00; Tu-Fr 09:00-00:00; Sa 00:00-01:00, 09:00-00:00; Su 00:00-01:00, 09:00-23:00", "phone": "+43 1 5810489", "smoking": "no", "website": "https://www.phil.love/", "wheelchair": "limited"}}, {"type": "node", "id": 352985492, "lat": 48.2569247, "lon": 16.3987779, "tags": {"amenity": "cafe", "diet:vegetarian": "yes", "indoor_seating": "yes", "name": "Cafe Klim Bim", "outdoor_seating": "yes", "wheelchair": "no"}}, {"type": "node", "id": 353071638, "lat": 48.2570163, "lon": 16.4000161, "tags": {"amenity": "cafe", "brand": "Tchibo", "brand:wikidata": "Q564213", "brand:wikipedia": "de:Tchibo", "check_date:opening_hours": "2024-07-31", "name": "Tchibo", "opening_hours": "Mo-Fr 08:00-18:30; Sa 08:00-17:00", "shop": "coffee", "wheelchair": "limited"}}, {"type": "node", "id": 353700317, "lat": 48.2761283, "lon": 16.4081259, "tags": {"addr:city": "Wien", "addr:country": "AT", "addr:housenumber": "131", "addr:postcode": "1210", "addr:street": "Br\u00fcnner Stra\u00dfe", "amenity": "cafe", "cuisine": "cake", "name": "Cafe Konditorei Welser"}}, {"type": "node", "id": 355211469, "lat": 48.2154083, "lon": 16.3264608, "tags": {"addr:city": "Wien", "addr:country": "AT", "addr:housenumber": "19", "addr:postcode": "1170", "addr:street": "Lorenz-Bayer-Platz", "amenity": "cafe", "cuisine": "austrian", "diet:vegetarian": "yes", "email": "office@huebler-wien.at", "indoor_seating": "yes", "internet_access": "wlan", "name": "H\u00fcbler", "opening_hours": "Mo-Sa 07:00-19:00; Su 08:00-19:00", "outdoor_seating": "yes", "phone": "+43 1 486 4640", "website": "https://www.huebler-wien.at", "wheelchair": "no"}}, {"type": "node", "id": 356313158, "lat": 48.2606036, "lon": 16.3996669, "tags": {"amenity": "cafe", "name": "Perugini Gelateria Italiana", "opening_hours": "Mo-Su,PH 10:30-21:00"}}, {"type": "node", "id": 356892391, "lat": 48.2185951, "lon": 16.4117035, "tags": {"addr:city": "Wien", "addr:country": "AT", "addr:housenumber": "231", "addr:postcode": "1020", "addr:street": "Engerthstra\u00dfe", "amenity": "cafe", "indoor_seating": "yes", "name": "Cafe Vienna", "opening_hours": "Mo 09:00-20:00; Tu-Fr 08:00-20:00; Sa 09:00-15:00; Su off", "outdoor_seating": "sidewalk"}}, {"type": "node", "id": 360192261, "lat": 48.2782663, "lon": 16.4105729, "tags": {"addr:city": "Wien", "addr:country": "AT", "addr:housenumber": "138", "addr:postcode": "1210", "addr:street": "Br\u00fcnner Stra\u00dfe", "amenity": "cafe", "cuisine": "ice_cream", "name": "R\u00fcka's Eis-Cafe", "opening_hours": "PH,Mo-Su 10:00-20:00", "smoking": "no"}}, {"type": "node", "id": 361527735, "lat": 48.2172664, "lon": 16.3383396, "tags": {"amenity": "cafe", "brand": "Wild Bean Cafe", "brand:wikidata": "Q61804826", "cuisine": "coffee_shop", "name": "Wild Bean Cafe", "takeaway": "yes"}}, {"type": "node", "id": 362372212, "lat": 48.1680528, "lon": 16.4223757, "tags": {"amenity": "cafe", "created_by": "Potlatch 0.10f", "name": "Espresso Elfi"}}, {"type": "node", "id": 363186048, "lat": 48.1732174, "lon": 16.4176966, "tags": {"amenity": "cafe", "indoor_seating": "yes"}}, {"type": "node", "id": 364439550, "lat": 48.2786014, "lon": 16.4157307, "tags": {"amenity": "cafe", "cuisine": "coffee_shop;cake;dessert;regional", "name": "Zur Greisslerin", "outdoor_seating": "yes", "snack": "yes", "website": "http://www.zurgreisslerin.at"}}, {"type": "node", "id": 365865938, "lat": 48.2043161, "lon": 16.3746746, "tags": {"addr:city": "Wien", "addr:country": "AT", "addr:housenumber": "23", "addr:postcode": "1010", "addr:street": "Johannesgasse", "amenity": "cafe", "name": "Wolfbauer", "opening_hours": "Mo-Fr 06:00-17:00", "shop": "bakery", "website": "https://www.cafe-wolfbauer.at/", "wheelchair": "no"}}, {"type": "node", "id": 365947932, "lat": 48.2580998, "lon": 16.3999874, "tags": {"addr:city": "Wien", "addr:country": "AT", "addr:housenumber": "11", "addr:postcode": "1210", "addr:street": "Pius-Parsch-Platz", "amenity": "cafe", "cuisine": "ice_cream", "indoor_seating": "yes", "name": "Franz Steiner", "outdoor_seating": "pedestrian_zone", "phone": "+43 1 2711834", "shop": "ice_cream", "wheelchair": "no"}}, {"type": "node", "id": 365947989, "lat": 48.2582168, "lon": 16.4000794, "tags": {"amenity": "cafe", "check_date:opening_hours": "2024-07-31", "name": "Cafe Saus & Braus", "opening_hours": "Mo-Sa 07:00-21:00; Su,PH 08:00-21:00", "wheelchair": "limited"}}, {"type": "node", "id": 366220354, "lat": 48.2211808, "lon": 16.4000289, "tags": {"amenity": "cafe", "check_date": "2024-08-21", "cuisine": "cake", "diet:vegetarian": "yes", "indoor_seating": "yes", "level": "0", "name": "Konditorei Am Park", "opening_hours": "Mo,We-Su,PH 09:00-21:00", "outdoor_seating": "yes", "wheelchair": "no"}}, {"type": "node", "id": 367817578, "lat": 48.2174374, "lon": 16.390204, "tags": {"amenity": "cafe", "brand": "a\u00efda", "brand:wikidata": "Q794636", "cuisine": "coffee_shop", "diet:vegetarian": "yes", "indoor_seating": "yes", "name": "a\u00efda", "opening_hours": "Mo-Fr 07:00-19:00; Sa 08:00-19:00; Su, PH 09:00-19:00", "outdoor_seating": "sidewalk", "takeaway": "yes", "wheelchair": "limited"}}, {"type": "node", "id": 367850770, "lat": 48.2101521, "lon": 16.3780993, "tags": {"amenity": "cafe", "created_by": "Potlatch 0.10f", "name": "Le Caf\u00e9", "wheelchair": "yes"}}, {"type": "node", "id": 367997616, "lat": 48.2619521, "lon": 16.4008275, "tags": {"amenity": "cafe", "indoor_seating": "yes", "name": "Marktcafe", "outdoor_seating": "yes"}}, {"type": "node", "id": 370438683, "lat": 48.2253802, "lon": 16.3448062, "tags": {"addr:city": "Wien", "addr:country": "AT", "addr:housenumber": "36", "addr:postcode": "1180", "addr:street": "Kutschkergasse", "amenity": "cafe", "cuisine": "coffee_shop", "indoor_seating": "yes", "name": "Himmelblau", "outdoor_seating": "yes", "website": "https://himmelblau18.at/"}}, {"type": "node", "id": 370521980, "lat": 48.299297, "lon": 16.4195592, "tags": {"addr:city": "Wien", "addr:country": "AT", "addr:housenumber": "122", "addr:postcode": "1210", "addr:street": "Stammersdorfer Stra\u00dfe", "amenity": "cafe", "name": "Cafecito", "opening_hours": "Mo-Sa 15:00-20:00"}}, {"type": "node", "id": 371798859, "lat": 48.2320509, "lon": 16.3545302, "tags": {"addr:city": "Wien", "addr:country": "AT", "addr:housenumber": "2", "addr:postcode": "1190", "addr:street": "D\u00f6blinger G\u00fcrtel", "amenity": "cafe", "contact:facebook": "https://www.facebook.com/dasblaustern/", "cuisine": "coffee_shop", "email": "blaustern@blaustern.at", "indoor_seating": "yes", "name": "Blaustern", "old_name": "Grillparzer", "opening_hours": "Mo-Sa 08:00-23:00; Su 08:00-20:00", "outdoor_seating": "yes", "payment:cash": "yes", "payment:mastercard": "yes", "payment:visa": "yes", "phone": "+43 1 369 65 64", "smoking": "no", "website": "https://www.blaustern.at/", "wheelchair": "limited"}}, {"type": "node", "id": 373550671, "lat": 48.1984737, "lon": 16.3624206, "tags": {"addr:city": "Wien", "addr:country": "AT", "addr:housenumber": "22", "addr:postcode": "1060", "addr:street": "Linke Wienzeile", "amenity": "cafe", "check_date": "2025-03-23", "check_date:opening_hours": "2025-03-23", "cuisine": "austrian", "indoor_seating": "yes", "internet_access": "wlan", "internet_access:provider": "Freewave", "name": "Cafe Drechsler", "opening_hours": "Mo-Fr 08:00-16:00; Sa,Su 09:00-17:00", "outdoor_seating": "yes", "website": "http://www.cafedrechsler.at/", "wheelchair": "limited", "wheelchair:description": "Eingang Wienzeile: Doppelt\u00fcr. Kein WC-Zugang. Eingang Girardigasse: Kleine Stufe hinab. Zugang zu Rollstuhltoiletten: Unversperrt, gro\u00dfes Waschb\u00e4cken direkt vor Klo, teilweise als Lagerraum verwendet."}}, {"type": "node", "id": 380762894, "lat": 48.2610406, "lon": 16.4017758, "tags": {"amenity": "cafe", "cuisine": "cake", "name": "Cafe Konditorei \"Auf a' Tratscherl\"", "wheelchair": "limited"}}, {"type": "node", "id": 394053172, "lat": 48.2042359, "lon": 16.3694106, "tags": {"addr:city": "Wien", "addr:country": "AT", "amenity": "cafe", "email": "mozart@cafe-wien.at", "indoor_seating": "yes", "name": "Cafe Mozart", "name:ja": "\u30ab\u30d5\u30a7\u30fb\u30e2\u30fc\u30c4\u30a1\u30eb\u30c8", "opening_hours": "Mo-Su 08:00-00:00", "outdoor_seating": "sidewalk", "payment:credit_cards": "yes", "payment:debit_cards": "yes", "phone": "+43 1 24100200", "website": "https://www.cafe-mozart.at/", "wheelchair": "yes", "wikidata": "Q1025645", "wikipedia": "de:Caf\u00e9 Mozart (Wien)"}}, {"type": "node", "id": 394941622, "lat": 48.2100861, "lon": 16.3704114, "tags": {"amenity": "cafe", "indoor_seating": "yes", "name": "Caff\u00e8 Delia's", "opening_hours": "Mo-Sa 08:00-24:00, Su 10:00-24:00", "outdoor_seating": "yes", "wheelchair": "yes"}}, {"type": "node", "id": 394941625, "lat": 48.2067216, "lon": 16.3707002, "tags": {"addr:city": "Wien", "addr:country": "AT", "addr:housenumber": "16", "addr:postcode": "1010", "addr:street": "Neuer Markt", "alt_name": "Konditorei & Restaurant Oberlaa", "amenity": "cafe", "changing_table": "yes", "changing_table:count": "2", "changing_table:location": "female_toilet", "diet:vegan": "yes", "diet:vegetarian": "yes", "indoor_seating": "yes", "name": "Kurkonditorei Oberlaa", "opening_hours": "Mo-Su 08:00-20:00", "outdoor_seating": "yes", "phone": "+43 1 51329360", "toilets:wheelchair": "yes", "website": "https://oberlaa-wien.at/standorte/standort-neuer-markt/", "wheelchair": "yes"}}, {"type": "node", "id": 409168050, "lat": 48.2070299, "lon": 16.339717, "tags": {"addr:city": "Wien", "addr:country": "AT", "addr:housenumber": "96", "addr:postcode": "1070", "addr:street": "Kaiserstra\u00dfe", "amenity": "cafe", "changing_table": "no", "contact:website": "http://www.quentin-kaffeebar.com", "diet:vegan": "no", "diet:vegetarian": "yes", "email": "info@quentin-kaffeebar.com", "indoor_seating": "yes", "name": "Quentin's Kaffeebar", "opening_hours": "Mo-Sa 16:00-23:00; Su 17:00-23:00", "outdoor_seating": "yes", "phone": "+43 699 17 15 1009", "smoking": "outside", "toilets": "yes", "toilets:wheelchair": "limited", "wheelchair": "limited"}}, {"type": "node", "id": 409168057, "lat": 48.1967604, "lon": 16.3656897, "tags": {"addr:city": "Wien", "addr:country": "AT", "addr:housenumber": "7", "addr:postcode": "1040", "addr:street": "Schleifm\u00fchlgasse", "amenity": "cafe", "indoor_seating": "yes", "name": "Mani im Vierten", "opening_hours": "Mo-We 08:00-24:00, Th,Fr 08:00-02:00, Sa 09:00-02:00, Su 09:00-24:00", "outdoor_seating": "yes", "phone": "+4318903160", "website": "https://www.mani.wien/"}}, {"type": "node", "id": 409188527, "lat": 48.1953663, "lon": 16.3551424, "tags": {"addr:city": "Wien", "addr:country": "AT", "addr:housenumber": "20", "addr:postcode": "1050", "addr:street": "Hamburgerstra\u00dfe", "amenity": "cafe", "check_date": "2023-08-20", "cuisine": "regional", "diet:vegan": "no", "diet:vegetarian": "yes", "indoor_seating": "yes", "internet_access": "no", "name": "R\u00fcdigerhof", "opening_hours": "Mo-Su 09:00-02:00", "outdoor_seating": "yes", "payment:cards": "no", "payment:credit_cards": "no", "payment:debit_cards": "no", "phone": "+4315863138", "smoking": "separated", "toilets:wheelchair": "no", "wheelchair": "limited", "wikidata": "Q2203819", "wikipedia": "de:R\u00fcdigerhof"}}, {"type": "node", "id": 409188534, "lat": 48.200792, "lon": 16.358538, "tags": {"addr:city": "Wien", "addr:country": "AT", "addr:housenumber": "23-25", "addr:postcode": "1060", "addr:street": "Mariahilfer Stra\u00dfe", "amenity": "cafe", "brand": "Starbucks", "brand:wikidata": "Q37158", "brand:wikipedia": "en:Starbucks", "changing_table": "yes", "changing_table:location": "wheelchair_toilet", "cuisine": "coffee_shop", "indoor_seating": "yes", "internet_access": "wlan", "internet_access:fee": "no", "name": "Starbucks", "official_name": "Starbucks Coffee", "opening_hours": "Mo-Sa 07:30-22:00, Su 08:00-22:00", "operator": "Starbucks Coffee Company", "outdoor_seating": "yes", "smoking": "outside", "takeaway": "yes", "toilets:wheelchair": "yes", "website": "https://www.starbucks.at/", "wheelchair": "limited"}}, {"type": "node", "id": 409188538, "lat": 48.198445, "lon": 16.3639735, "tags": {"addr:city": "Wien", "addr:housenumber": "15", "addr:postcode": "1040", "addr:street": "Rechte Wienzeile", "amenity": "cafe", "cuisine": "regional", "internet_access": "wlan", "internet_access:fee": "no", "internet_access:ssid": "amacord privat", "name": "Caf\u00e9 Amacord", "opening_hours": "Mo-Sa 11:30-24:00", "outdoor_seating": "yes", "wheelchair": "no"}}, {"type": "node", "id": 415357334, "lat": 48.2058531, "lon": 16.47675, "tags": {"addr:city": "Wien", "addr:country": "AT", "addr:housenumber": "2", "addr:postcode": "1220", "addr:street": "M\u00fchlwasserpromenade", "amenity": "cafe", "at_bev:addr_date": "2017-10-01", "name": "Kleines Strandcafe", "wheelchair": "limited"}}, {"type": "node", "id": 415906772, "lat": 48.2055964, "lon": 16.3450033, "tags": {"amenity": "cafe", "diet:vegan": "yes", "diet:vegetarian": "yes", "indoor_seating": "yes", "name": "Kreuzberg", "opening_hours": "Mo-Fr 09:00-22:00; Sa 15:00-22:00; PH,Su 17:00-22:00", "outdoor_seating": "yes", "smoking": "outside", "wheelchair": "no"}}, {"type": "node", "id": 418039610, "lat": 48.1689909, "lon": 16.4208675, "tags": {"amenity": "cafe", "name": "Gelateria Riva del Garda"}}, {"type": "node", "id": 419240555, "lat": 48.2091716, "lon": 16.3761236, "tags": {"addr:city": "Wien", "addr:country": "AT", "addr:housenumber": "9", "addr:postcode": "1010", "addr:street": "B\u00e4ckerstra\u00dfe", "amenity": "cafe", "cuisine": "regional", "email": "office@kaffeealtwien.at", "indoor_seating": "yes", "level": "0", "name": "Kaffee Alt Wien", "opening_hours": "Mo-Su, PH 09:00-02:00, Dec 24 off", "outdoor_seating": "no", "phone": "+43 1 5125222", "smoking": "yes", "start_date": "1922-10-14", "toilets:wheelchair": "no", "website": "https://www.kaffeealtwien.at/", "wheelchair": "limited", "wikidata": "Q877123", "wikipedia": "de:Kaffee Alt Wien"}}, {"type": "node", "id": 419289410, "lat": 48.1912746, "lon": 16.358366, "tags": {"addr:city": "Wien", "addr:country": "AT", "addr:housenumber": "77", "addr:postcode": "1050", "addr:street": "Margaretenstra\u00dfe", "amenity": "cafe", "bar": "yes", "check_date:opening_hours": "2023-06-11", "indoor_seating": "yes", "internet_access": "wlan", "internet_access:fee": "no", "lunch": "menu", "name": "Cuadro", "opening_hours": "Mo-Sa 08:00-24:00; Su,PH 09:00-23:00", "outdoor_seating": "yes", "toilets:wheelchair": "no", "website": "https://www.cuadro.at/", "wheelchair": "limited"}}, {"type": "node", "id": 421413506, "lat": 48.2254872, "lon": 16.3394462, "tags": {"amenity": "cafe", "cuisine": "ice_cream", "description": "Eis, Kaffee, Gastgarten", "diet:vegetarian": "yes", "name": "Eis Cafe Brontolone", "opening_hours": "PH,Mo-Su 12:00-19:00"}}, {"type": "node", "id": 423005412, "lat": 48.1962274, "lon": 16.3617915, "tags": {"addr:city": "Wien", "addr:country": "AT", "addr:housenumber": "14", "addr:postcode": "1040", "addr:street": "Heum\u00fchlgasse", "amenity": "cafe", "check_date": "2024-02-25", "community_centre:for": "homosexual", "indoor_seating": "yes", "lgbtq": "primary", "lgbtq:women": "only @ (We 19:00-24:00)", "name": "Gugg", "opening_hours": "Tu,We,Fr 19:00-24:00, Th 17:30-22:00", "outdoor_seating": "no", "website": "https://www.hosiwien.at/gugg/", "wheelchair": "yes"}}, {"type": "node", "id": 425448602, "lat": 48.2033727, "lon": 16.363197, "tags": {"addr:city": "Wien", "addr:country": "AT", "addr:housenumber": "3", "addr:postcode": "1010", "addr:street": "Babenbergerstra\u00dfe", "amenity": "cafe", "check_date": "2023-06-09", "diet:vegetarian": "yes", "indoor_seating": "yes", "name": "Cr\u00eape & Waffles paradise", "opening_hours": "Mo-Su 12:00-19:00", "outdoor_seating": "yes", "wheelchair": "yes"}}, {"type": "node", "id": 428028612, "lat": 48.2345019, "lon": 16.3277453, "tags": {"addr:city": "Wien", "addr:country": "AT", "addr:housenumber": "30", "addr:postcode": "1180", "addr:street": "Gersthofer Stra\u00dfe", "amenity": "cafe", "cuisine": "coffee_shop", "name": "Blumencaf\u00e9", "opening_hours": "Mo-Fr 08:00-20:00; Sa-Su 09:00-19:00", "outdoor_seating": "yes", "toilets:wheelchair": "yes", "website": "https://blumencafe.at/", "wheelchair": "limited"}}, {"type": "node", "id": 440396315, "lat": 48.2126214, "lon": 16.3639968, "tags": {"addr:city": "Wien", "addr:country": "AT", "addr:housenumber": "2", "addr:postcode": "1010", "addr:street": "Schottengasse", "amenity": "cafe", "check_date": "2023-08-20", "contact:email": "schottenstift@diglas.at", "contact:phone": "+43 1 535 15 50", "contact:website": "http://cafeimschottenstift.at", "indoor_seating": "yes", "level": "1-2", "lunch:menu": "Mo-Fr", "name": "Cafe Diglas im Schottenstift", "opening_hours": "08:00-22:00", "outdoor_seating": "garden", "website:menu": "https://cafeimschottenstift.at/wp-content/uploads/2023/03/20230316131946.pdf", "wheelchair": "limited", "wheelchair:description": "Zugang rollstuhl gerecht (doppelfl\u00fcgige T\u00fcre) auf der R\u00fcckseite des Hauses. vorne hohe Stufe. leider wc \u00fcber Stiege im ersten Stock unerreichbar."}}, {"type": "node", "id": 441576825, "lat": 48.1993389, "lon": 16.3367173, "tags": {"addr:city": "Wien", "addr:country": "AT", "addr:housenumber": "6", "addr:postcode": "1150", "addr:street": "Goldschlagstra\u00dfe", "amenity": "cafe", "cuisine": "austrian", "indoor_seating": "yes", "name": "Cafe Weingartner", "opening_hours": "Mo-Sa 09:00-00:00; Su 14:00-00:00", "outdoor_seating": "yes", "phone": "+43 1 982 43 99", "website": "https://www.weingartner.co.at"}}, {"type": "node", "id": 441695040, "lat": 48.2138114, "lon": 16.3620282}, {"type": "node", "id": 441696299, "lat": 48.21664, "lon": 16.3571268, "tags": {"addr:city": "Wien", "addr:country": "AT", "addr:housenumber": "15", "addr:postcode": "1090", "addr:street": "Schwarzspanierstra\u00dfe", "amenity": "cafe", "diet:vegan": "yes", "diet:vegetarian": "yes", "email": "office@weltcafe.at", "indoor_seating": "yes", "internet_access": "wlan", "internet_access:fee": "no", "name": "Weltcaf\u00e9", "opening_hours": "Mo-Fr 08:00-22:00; Sa,Su 09:00-22:00", "outdoor_seating": "yes", "phone": "+43 1 4053741", "smoking": "no", "website": "https://www.weltcafe.at/", "wheelchair": "yes", "wheelchair:description": "Barierefreies WC, Rollstuhl- WC vorhanden"}}, {"type": "node", "id": 442046095, "lat": 48.2457, "lon": 16.341278, "tags": {"addr:city": "Wien", "addr:housenumber": "63", "addr:postcode": "1190", "addr:street": "Friedlgasse", "amenity": "cafe", "diet:vegan": "yes", "diet:vegetarian": "yes", "email": "info@cafefriedl.at", "indoor_seating": "yes", "name": "Caf\u00e9 Friedl", "opening_hours": "Tu-Sa 08:00-21:30; Su 08:00-16:30; Mo,PH off", "operator": "Lisa Greslehner", "outdoor_seating": "yes", "phone": "+43 676 9386261", "takeaway": "yes", "toilets": "yes", "website": "https://www.cafefriedl.at"}}, {"type": "node", "id": 442051738, "lat": 48.2459865, "lon": 16.3413781, "tags": {"addr:city": "Wien", "addr:country": "AT", "addr:housenumber": "4", "addr:postcode": "1190", "addr:street": "Sieveringer Stra\u00dfe", "alt_name": "Konditorei & Restaurant Oberlaa", "amenity": "cafe", "cuisine": "cake", "diet:vegan": "yes", "diet:vegetarian": "yes", "email": "sievering@oberlaa-wien.at", "name": "Cafe Konditorei Oberlaa", "opening_hours": "PH,Mo-Su 08:00-20:00", "phone": "+43 1 320 77 07 0", "website": "https://oberlaa-wien.at/standorte/standort-sievering/", "wheelchair": "yes"}}, {"type": "node", "id": 442059975, "lat": 48.1947829, "lon": 16.3360301, "tags": {"addr:city": "Wien", "addr:housenumber": "140", "addr:postcode": "1150", "addr:street": "Mariahilfer Stra\u00dfe", "amenity": "cafe", "check_date": "2023-06-04", "cuisine": "ice_cream;sandwich", "indoor_seating": "yes", "name": "Eissalon Garda", "opening_hours": "Mo-Sa 09:00-23:30; Su 10:00 - 23:30", "outdoor_seating": "yes", "phone": "+43 1 89 23 430", "wheelchair": "no"}}, {"type": "node", "id": 442443224, "lat": 48.2041947, "lon": 16.3451655, "tags": {"addr:city": "Wien", "addr:country": "AT", "addr:housenumber": "70", "addr:postcode": "1070", "addr:street": "Zieglergasse", "amenity": "cafe", "check_date": "2022-10-01", "indoor_seating": "yes", "name": "froemmel's", "opening_hours": "Mo-Fr 07:30-18:00; Sa 09:00-13:00; PH,Su off", "outdoor_seating": "no", "smoking": "no", "website": "https://www.froemmel.at/", "wheelchair": "no"}}, {"type": "node", "id": 442573493, "lat": 48.1969068, "lon": 16.3459299, "tags": {"addr:city": "Wien", "addr:country": "AT", "addr:housename": "99", "addr:housenumber": "99", "addr:postcode": "1060", "addr:street": "Mariahilfer Stra\u00dfe", "amenity": "cafe", "check_date": "2024-12-23", "check_date:opening_hours": "2024-12-23", "contact:website": "https://www.coffee-fellows.com/", "diet:vegan": "yes", "diet:vegetarian": "yes", "indoor_seating": "yes", "level": "1", "name": "Coffee Fellows", "opening_hours": "Mo-We 09:00-18:30; Th,Fr 09:00-19:00; Sa 09:00-18:00", "outdoor_seating": "no", "payment:credit_cards": "yes", "payment:debit_cards": "yes"}}, {"type": "node", "id": 442579134, "lat": 48.1979831, "lon": 16.3506371, "tags": {"addr:city": "Wien", "addr:country": "AT", "addr:housenumber": "73", "addr:postcode": "1060", "addr:street": "Mariahilfer Stra\u00dfe", "amenity": "cafe", "contact:email": "office@caferitter.at", "contact:phone": "+43 1 5878238", "contact:website": "http://www.caferitter.at", "indoor_seating": "yes", "name": "Ritter", "opening_hours": "Mo-Sa 07:30-22:00; Su 09:00-21:00; PH 09:00-21:00", "outdoor_seating": "yes", "payment:cards": "yes", "payment:cash": "no", "wikidata": "Q1025662", "wikipedia": "de:Caf\u00e9 Ritter"}}, {"type": "node", "id": 442715461, "lat": 48.1940045, "lon": 16.3939948, "tags": {"addr:city": "Wien", "addr:country": "AT", "addr:housenumber": "15", "addr:postcode": "1030", "addr:street": "Klimschgasse", "amenity": "cafe", "check_date": "2023-10-15", "name": "Black Jack", "opening_hours": "Mo-Fr 06:30-02:00; Sa 07:00-02:00; Su 09:00-02:00", "wheelchair": "no"}}, {"type": "node", "id": 442972885, "lat": 48.202874, "lon": 16.3442901, "tags": {"addr:city": "Wien", "addr:country": "AT", "addr:housenumber": "12", "addr:postcode": "1070", "addr:street": "Kandlgasse", "amenity": "cafe", "name": "Caf\u00e9 Kandl", "phone": "+431890893815", "website": "https://cafekandl.at/"}}, {"type": "node", "id": 442981702, "lat": 48.203267, "lon": 16.3491634, "tags": {"addr:city": "Wien", "addr:country": "AT", "addr:housenumber": "64", "addr:postcode": "1070", "addr:street": "Neubaugasse", "amenity": "cafe", "brand": "a\u00efda", "brand:wikidata": "Q794636", "cuisine": "cake", "diet:vegan": "yes", "diet:vegetarian": "yes", "indoor_seating": "yes", "name": "a\u00efda", "opening_hours": "Mo-Fr 08:00-19:00, Sa 09:00-19:00, Su,PH 09:00-19:00", "outdoor_seating": "yes", "smoking": "no", "takeaway": "yes", "toilets:wheelchair": "no", "wheelchair": "yes"}}, {"type": "node", "id": 442997731, "lat": 48.2015482, "lon": 16.3549023, "tags": {"addr:city": "Wien", "addr:country": "AT", "addr:postcode": "1070", "amenity": "cafe", "check_date:opening_hours": "2024-09-21", "cuisine": "cake", "indoor_seating": "yes", "name": "Cafe - Konditorei A. Blocher", "opening_hours": "Mo-We 07:00-19:00; Th 07:00-18:00", "outdoor_seating": "yes", "wheelchair": "no"}}, {"type": "node", "id": 442997769, "lat": 48.2007984, "lon": 16.3554451, "tags": {"amenity": "cafe", "name": "la cit\u00e9", "toilets:wheelchair": "yes", "wheelchair": "yes"}}, {"type": "node", "id": 442997852, "lat": 48.1998733, "lon": 16.3509, "tags": {"addr:city": "Wien", "addr:country": "AT", "addr:housenumber": "8", "addr:postcode": "1070", "addr:street": "Zollergasse", "alt_name": "Cafe Europa", "amenity": "cafe", "check_date:opening_hours": "2025-02-27", "email": "bar@cafeeuropa.at", "indoor_seating": "yes", "name": "Caf\u00e9 Europa Lager", "name:de": "Caf\u00e9 Europa", "name:en": "Caf\u00e9 Europa", "opening_hours": "Mo-Su 09:00-05:00", "outdoor_seating": "yes", "phone": "015263383", "website": "https://www.cafeeuropa.at/", "wheelchair": "no"}}, {"type": "node", "id": 443013016, "lat": 48.1996474, "lon": 16.3556973, "tags": {"addr:city": "Wien", "addr:postcode": "1060", "addr:street": "Raimundhofpassage", "amenity": "cafe", "contact:facebook": "https://www.facebook.com/secretgardencafewien", "contact:phone": "+43 01 /586 28 39", "cuisine": "coffee_shop", "name": "My Secret Garden", "opening_hours": "Mo-Sa 11:00-19:00; Feiertags geschlossen", "source": "survey", "website": "https://www.secretgardenrestaurant.at/", "wheelchair": "no"}}, {"type": "node", "id": 443013020, "lat": 48.1997358, "lon": 16.3529326, "tags": {"addr:city": "Wien", "addr:country": "AT", "addr:postcode": "1070", "addr:street": "Kirchengasse", "amenity": "cafe", "check_date": "2024-10-16", "check_date:opening_hours": "2024-10-16", "check_date:smoking": "2024-10-16", "indoor_seating": "yes", "level": "0", "name": "Le Ch\u00e9ri", "opening_hours": "Mo-Sa 08:00-22:00; Su 09:30-18:00", "outdoor_seating": "yes", "smoking": "outside"}}, {"type": "node", "id": 443221943, "lat": 48.178268, "lon": 16.3085818, "tags": {"addr:city": "Wien", "addr:country": "AT", "addr:postcode": "1130", "addr:street": "Schlo\u00dfpark Sch\u00f6nbrunn", "air_conditioning": "no", "amenity": "cafe", "changing_table": "yes", "diet:halal": "yes", "diet:kosher": "yes", "diet:vegan": "no", "diet:vegetarian": "yes", "email": "office@gloriette-cafe.at", "indoor_seating": "yes", "internet_access": "wlan", "internet_access:fee": "no", "name": "Caf\u00e9 Gloriette", "opening_hours": "Mo-Su,PH 09:00-20:00", "outdoor_seating": "yes", "payment:credit_cards": "yes", "payment:debit_cards": "yes", "phone": "+43 1 8791311", "smoking": "outside", "toilets:wheelchair": "no", "website": "https://www.gloriette-cafe.at/", "wheelchair": "yes", "wikidata": "Q873139", "wikimedia_commons": "Category:Cafe Gloriette"}}, {"type": "node", "id": 444308577, "lat": 48.1991661, "lon": 16.3992343, "tags": {"amenity": "cafe", "name": "Galerie", "wheelchair": "yes"}}, {"type": "node", "id": 444884075, "lat": 48.1985619, "lon": 16.3588836, "tags": {"amenity": "cafe", "check_date": "2024-02-09", "fetish": "yes", "lgbtq": "welcome", "name": "SMartCaf\u00e9", "opening_hours": "Tu-Th 18:00-02:00; Fr, Sa 18:00-04:00", "smoking": "yes", "wheelchair": "limited"}}, {"type": "node", "id": 449210154, "lat": 48.1712335, "lon": 16.2918774, "tags": {"addr:city": "Wien", "addr:country": "AT", "addr:housenumber": "111", "addr:postcode": "1130", "addr:street": "Wattmanngasse", "amenity": "cafe", "name": "Per Du", "wheelchair": "no"}}, {"type": "node", "id": 451617621, "lat": 48.1943475, "lon": 16.387892, "tags": {"addr:city": "Wien", "addr:country": "AT", "addr:housenumber": "43", "addr:postcode": "1030", "addr:street": "Rennweg", "amenity": "cafe", "check_date:opening_hours": "2024-10-03", "indoor_seating": "yes", "name": "Cafe Dialog", "opening_hours": "Mo-Fr 06:00-02:00; Sa 07:00-02:00", "opening_hours:signed": "no", "outdoor_seating": "sidewalk", "wheelchair": "no"}}, {"type": "node", "id": 457117732, "lat": 48.1879965, "lon": 16.3722614, "tags": {"amenity": "cafe", "diet:vegan": "no", "diet:vegetarian": "yes", "name": "Caf\u00e9 Gitarre", "opening_hours": "Mo-Su 16:00-24:00", "toilets:wheelchair": "no", "wheelchair": "no"}}, {"type": "node", "id": 457217069, "lat": 48.1578699, "lon": 16.4543729, "tags": {"addr:city": "Wien", "addr:country": "AT", "addr:housenumber": "30", "addr:postcode": "1110", "addr:street": "Th\u00fcrnlhofstra\u00dfe", "amenity": "cafe", "name": "Caf\u00e9-Espresso Susi", "wheelchair:description": "Dieses Cafe\u00b4- Espresso existiert nicht mehr.!!!"}}, {"type": "node", "id": 457217761, "lat": 48.1582287, "lon": 16.453556, "tags": {"addr:city": "Wien", "addr:country": "AT", "addr:housenumber": "25", "addr:postcode": "1110", "addr:street": "Th\u00fcrnlhofstra\u00dfe", "amenity": "cafe", "name": "Caffetteria"}}, {"type": "node", "id": 458747386, "lat": 48.1909631, "lon": 16.3560256, "tags": {"addr:city": "Wien", "addr:country": "AT", "addr:housenumber": "61", "addr:postcode": "1050", "addr:street": "Sch\u00f6nbrunner Stra\u00dfe", "amenity": "cafe", "check_date:opening_hours": "2023-08-13", "contact:phone": "+43 1 913 87 28", "dog": "leashed", "drink:club-mate": "yes", "indoor_seating": "yes", "name": "WerkzeugH", "opening_hours": "Mo-Sa 16:00-24:00", "outdoor_seating": "yes", "website": "http://www.werkzeugh.at/de/#contact", "wheelchair": "yes"}}, {"type": "node", "id": 471045128, "lat": 48.2080379, "lon": 16.3786359, "tags": {"addr:city": "Wien", "addr:country": "AT", "addr:housenumber": "2", "addr:postcode": "1010", "addr:street": "Postgasse", "amenity": "cafe", "contact:phone": "+43 1 9668 665", "fax": "+43 1 9668697", "indoor_seating": "yes", "name": "Caf\u00e9 Engl\u00e4nder", "opening_hours": "Mo-Sa 08:00-01:00; Su,PH 10:00-01:00", "outdoor_seating": "parklet", "smoking": "outside", "website": "https://www.cafe-englaender.com/", "wheelchair": "limited"}}, {"type": "node", "id": 477364149, "lat": 48.2020538, "lon": 16.3602581, "tags": {"amenity": "cafe", "check_date": "2024-10-31", "check_date:diet:vegan": "2024-10-31", "check_date:diet:vegetarian": "2024-10-31", "check_date:opening_hours": "2024-10-31", "diet:vegan": "yes", "diet:vegetarian": "yes", "indoor_seating": "yes", "kids_area": "yes", "kids_area:indoor": "yes", "name": "Dschungel Caf\u00e9", "opening_hours": "Tu-Sa 09:00-21:00, Su,Mo 09:00-19:00", "outdoor_seating": "yes", "payment:cash": "yes", "payment:credit_cards": "yes", "payment:debit_cards": "yes", "wheelchair": "yes"}}, {"type": "node", "id": 478887930, "lat": 48.205727, "lon": 16.3722936, "tags": {"addr:city": "Wien", "addr:country": "AT", "addr:housenumber": "6", "addr:postcode": "1010", "addr:street": "Himmelpfortgasse", "amenity": "cafe", "check_date": "2024-09-20", "email": "office@cafefrauenhuber.at", "name": "Frauenhuber", "opening_hours": "Mo-Sa 08:00-22:00; Su,PH 10:00-20:00", "outdoor_seating": "yes", "phone": "+4315125353", "website": "https://www.cafefrauenhuber.at/", "wheelchair": "limited", "wikidata": "Q259051"}}, {"type": "node", "id": 479272277, "lat": 48.2014066, "lon": 16.3676093, "tags": {"addr:city": "Wien", "addr:country": "AT", "addr:housenumber": "7", "addr:postcode": "1010", "addr:street": "Operngasse", "amenity": "cafe", "email": "museum@cafe-wien.at", "fax": "+43-1-24100619", "food": "yes", "name": "Caf\u00e9 Museum", "opening_hours": "08:00-24:00", "phone": "+43-1-24100620", "smoking": "no", "start_date": "1899-04-19", "website": "https://www.cafemuseum.at/", "wheelchair": "limited", "wheelchair:description:de": "Schaltfl\u00e4che zum Bestellen einer Rampe", "wikidata": "Q268795", "wikipedia": "de:Caf\u00e9 Museum"}}, {"type": "node", "id": 492537190, "lat": 48.2169485, "lon": 16.3892253, "tags": {"amenity": "cafe", "indoor_seating": "yes", "name": "Dogenhof", "opening_hours": "Mo-Fr 17:00-23:00; Sa 09:30-23:00; PH,Su 09:30-16:00", "outdoor_seating": "sidewalk", "smoking": "yes", "toilets:wheelchair": "no", "wheelchair": "limited"}}, {"type": "node", "id": 495320725, "lat": 48.1749229, "lon": 16.3477265, "tags": {"amenity": "cafe", "check_date": "2024-03-07", "name": "Franzl", "wheelchair": "limited"}}, {"type": "node", "id": 512411257, "lat": 48.1902035, "lon": 16.4013016, "tags": {"amenity": "cafe", "indoor_seating": "yes", "name": "Cafe Public", "outdoor_seating": "yes"}}, {"type": "node", "id": 518666043, "lat": 48.1979209, "lon": 16.3306269, "tags": {"amenity": "cafe", "name": "Grand", "outdoor_seating": "yes"}}, {"type": "node", "id": 520277930, "lat": 48.2041056, "lon": 16.3501435, "tags": {"addr:city": "Wien", "addr:country": "AT", "addr:housenumber": "57", "addr:postcode": "1070", "addr:street": "Burggasse", "amenity": "cafe", "diet:vegan": "yes", "diet:vegetarian": "yes", "indoor_seating": "yes", "internet_access": "wlan", "internet_access:fee": "customers", "name": "Cafe Espresso", "opening_hours": "Mo-Fr 07:30-00:00", "operator": "Espresso Zerzer KEG", "outdoor_seating": "parklet", "phone": "+43 676 596 1645", "power_supply": "yes", "smoking": "separated", "surveillance": "no", "website": "https://espresso-wien.at/", "wheelchair": "no"}}, {"type": "node", "id": 524581338, "lat": 48.1913017, "lon": 16.3665087, "tags": {"amenity": "cafe", "cuisine": "cake", "name": "a\u00efda", "opening_hours": "Mo-Su 18:00-19:00", "wheelchair": "yes"}}, {"type": "node", "id": 526684626, "lat": 48.2018516, "lon": 16.3739176, "tags": {"amenity": "cafe", "check_date": "2023-05-08", "contact:website": "http://www.cafe-schwarzenberg.at", "diet:vegetarian": "yes", "indoor_seating": "yes", "internet_access": "wlan", "internet_access:fee": "no", "name": "Schwarzenberg", "name:zh": "\u9ed1\u5c71\u5496\u5561\uff08No.5)", "opening_hours": "Mo-Fr 07:30-24:00; Sa,Su 08:30-24:00", "outdoor_seating": "yes", "panoramax": "ed98661e-bae6-481e-9260-e22cda3cfb6e", "panoramax:0": "e654a203-677a-4a3e-9621-e795433db63c", "toilets:wheelchair": "no", "wheelchair": "limited", "wheelchair:description": "Dieses Kaffee ist teilweise rollstuhlgerecht. Es gibt einen stufenlosen breiten Seiteneingang f\u00fcr Lieferanten der bei Bedarf ge\u00f6ffnet wird. Beim Haupteingang ist eine Stufe mit 10 cm. WC nicht barrierefrei aber im Erdgescho\u00df ohne Treppen erreichbar.", "wikidata": "Q262572", "wikipedia": "de:Caf\u00e9 Schwarzenberg"}}, {"type": "node", "id": 527555412, "lat": 48.2134027, "lon": 16.3132769, "tags": {"addr:city": "Wien", "addr:country": "AT", "addr:housenumber": "167", "addr:postcode": "1160", "addr:street": "Ottakringer Stra\u00dfe", "amenity": "cafe", "check_date": "2024-06-16", "cuisine": "international", "internet_access": "wlan", "internet_access:fee": "no", "name": "Terminal Gastro Bar", "opening_hours": "08:00-24:00", "phone": "+43 1 2764109", "smoking": "isolated"}}, {"type": "node", "id": 530867127, "lat": 48.2065835, "lon": 16.3743582, "tags": {"addr:city": "Wien", "addr:country": "AT", "addr:housenumber": "3", "addr:postcode": "1010", "addr:street": "Franziskanerplatz", "amenity": "cafe", "indoor_seating": "yes", "name": "Kleines Cafe", "outdoor_seating": "yes", "wheelchair": "limited"}}, {"type": "node", "id": 539466664, "lat": 48.207435, "lon": 16.3435458, "tags": {"addr:city": "Wien", "addr:country": "AT", "addr:housenumber": "101", "addr:postcode": "1070", "addr:street": "Lerchenfelder Stra\u00dfe", "amenity": "cafe", "check_date:opening_hours": "2024-03-06", "diet:vegan": "yes", "diet:vegetarian": "yes", "indoor_seating": "yes", "name": "Felzl", "name:ru": "\u0424\u0435\u043b\u0446\u043b", "opening_hours": "Mo-Fr 06:30-18:30; Sa 07:00-14:00; Su 07:00-13:00", "outdoor_seating": "yes", "shop": "bakery", "website": "https://felzl.at/", "wheelchair": "no"}}, {"type": "node", "id": 540588261, "lat": 48.2435649, "lon": 16.3717833, "tags": {"amenity": "cafe", "name": "Caf\u00e9 Punto Rosso"}}, {"type": "node", "id": 549357084, "lat": 48.2099319, "lon": 16.3684339, "tags": {"addr:city": "Wien", "addr:country": "AT", "addr:housenumber": "3", "addr:postcode": "1010", "addr:street": "Bognergasse", "amenity": "cafe", "brand": "a\u00efda", "brand:wikidata": "Q794636", "cuisine": "coffee_shop", "diet:vegan": "yes", "diet:vegetarian": "yes", "indoor_seating": "yes", "name": "a\u00efda", "opening_hours": "Mo-Su 08:00-20:00", "operator": "Chocolaterie & Gro\u00dfkonditorei Aida-Prousek & Co.", "outdoor_seating": "yes", "takeaway": "yes", "wheelchair": "limited"}}, {"type": "node", "id": 561197349, "lat": 48.1763348, "lon": 16.3542938, "tags": {"addr:city": "Wien", "addr:country": "AT", "addr:floor": "0", "addr:housenumber": "6", "addr:postcode": "1100", "addr:street": "Kundratstra\u00dfe", "amenity": "cafe", "level": "0", "name": "Cafe K6", "wheelchair": "limited"}}, {"type": "node", "id": 566660659, "lat": 48.2111943, "lon": 16.3658272, "tags": {"addr:city": "Wien", "addr:country": "AT", "addr:housenumber": "1", "addr:postcode": "1010", "addr:street": "Freyung", "amenity": "cafe", "diet:vegan": "yes", "diet:vegetarian": "yes", "indoor_seating": "yes", "name": "Stadtcaf\u00e9", "opening_hours": "Mo-Sa 08:00-24:00, Su,PH 09:00-22:00", "outdoor_seating": "yes", "phone": "+43 1 205 353", "website": "https://www.stadtcafe-wien.at/"}}, {"type": "node", "id": 566992020, "lat": 48.214653, "lon": 16.3576674, "tags": {"addr:city": "Wien", "addr:country": "AT", "addr:housenumber": "4", "addr:postcode": "1090", "addr:street": "Universit\u00e4tsstra\u00dfe", "amenity": "cafe", "indoor_seating": "yes", "name": "Cafe Latte-Art", "opening_hours": "Mo-Fr 08:30-17:00", "outdoor_seating": "yes"}}, {"type": "node", "id": 567066360, "lat": 48.207204, "lon": 16.3686497, "tags": {"addr:city": "Wien", "addr:country": "AT", "addr:housenumber": "2", "addr:postcode": "1010", "addr:street": "Stallburggasse", "air_conditioning": "no", "amenity": "cafe", "cuisine": "regional", "indoor_seating": "yes", "internet_access": "no", "name": "Caf\u00e9 Br\u00e4unerhof", "opening_hours": "Mo-Fr 08:00-19:00; Sa 08:00-19:00; Su 10:00-18:00", "outdoor_seating": "yes", "payment:credit_cards": "no", "payment:debit_cards": "no", "phone": "+43 1 5123893", "smoking": "outside", "website": "http://www.braeunerhof.at/", "wheelchair": "no", "wikidata": "Q5017228", "wikipedia": "en:Caf\u00e9 Br\u00e4unerhof"}}, {"type": "node", "id": 568068784, "lat": 48.2225283, "lon": 16.3178511, "tags": {"addr:city": "Wien", "addr:country": "AT", "addr:housenumber": "161", "addr:postcode": "1170", "addr:street": "Hernalser Hauptstra\u00dfe", "amenity": "cafe", "cuisine": "coffee_shop", "diet:vegetarian": "yes", "indoor_seating": "yes", "name": "Konditorei L. Heiner", "opening_hours": "Mo-Sa 07:30-18:30; Su,PH 09:00-18:00", "outdoor_seating": "yes", "toilets:wheelchair": "no", "website": "http://www.heiner.co.at/", "wheelchair": "limited"}}, {"type": "node", "id": 568494734, "lat": 48.2027132, "lon": 16.2554195, "tags": {"addr:city": "Wien", "addr:country": "AT", "addr:housenumber": "428", "addr:postcode": "1140", "addr:street": "Linzer Stra\u00dfe", "amenity": "cafe", "name": "Poky's Cafe", "opening_hours": "Mo-Fr 09:00-19:00; Sa 10:00-15:00"}}, {"type": "node", "id": 571651943, "lat": 48.1791241, "lon": 16.3629041, "tags": {"addr:city": "Wien", "addr:country": "AT", "addr:housenumber": "184", "addr:postcode": "1100", "addr:street": "Gudrunstra\u00dfe", "amenity": "cafe", "name": "Mekan Cafe Shisha Lounge", "outdoor_seating": "no"}}, {"type": "node", "id": 583236013, "lat": 48.1358263, "lon": 16.2820079, "tags": {"addr:city": "Wien", "addr:country": "AT", "addr:housenumber": "360-368", "addr:postcode": "1230", "addr:street": "Breitenfurter Stra\u00dfe", "amenity": "cafe", "cuisine": "cake", "diet:vegan": "no", "diet:vegetarian": "yes", "indoor_seating": "yes", "name": "Cafe Konditorei Hirsch", "opening_hours": "Mo-Fr 08:00-18:30; Sa 08:00-12:00; Su,PH off", "outdoor_seating": "yes", "source": "survey", "wheelchair": "limited"}}, {"type": "node", "id": 583236351, "lat": 48.1367727, "lon": 16.2860229, "tags": {"addr:city": "Wien", "addr:country": "AT", "addr:housenumber": "354", "addr:postcode": "1230", "addr:street": "Breitenfurter Stra\u00dfe", "amenity": "cafe", "indoor_seating": "yes", "name": "Szihn", "opening_hours": "Mo-Fr 05:30-18:00; Sa 06:30-17:00; Su 07:00-17:00; PH 07:00-12:00; Dec 24 off; Jan 1 off", "operator": "Szihn GmbH", "outdoor_seating": "yes", "phone": "+43 1 8690120", "shop": "bakery", "website": "https://www.szihn.at/", "wheelchair": "yes"}}, {"type": "node", "id": 598634155, "lat": 48.1817429, "lon": 16.3749673, "tags": {"amenity": "cafe", "brand": "a\u00efda", "brand:wikidata": "Q794636", "check_date": "2025-03-16", "check_date:opening_hours": "2025-03-16", "cuisine": "coffee_shop", "diet:vegetarian": "yes", "indoor_seating": "yes", "name": "a\u00efda", "opening_hours": "Mo-Su 09:00-18:00", "outdoor_seating": "yes", "takeaway": "yes", "wheelchair": "yes"}}, {"type": "node", "id": 600706593, "lat": 48.1826276, "lon": 16.3573233, "tags": {"addr:city": "Wien", "addr:country": "AT", "addr:housenumber": "10", "addr:postcode": "1050", "addr:street": "Reinprechtsdorfer Stra\u00dfe", "amenity": "cafe", "cuisine": "coffee_shop;ice_cream", "diet:vegetarian": "yes", "email": "info@bienchen.eu", "indoor_seating": "yes", "name": "Konditorei Bienchen", "opening_hours": "Tu-Fr 08:00-18:00; Sa 10:00-17:00", "outdoor_seating": "yes", "phone": "+43 678 13 13 117", "website": "https://bienchen.eu/", "wheelchair": "no"}}, {"type": "node", "id": 600720878, "lat": 48.181445, "lon": 16.3577369, "tags": {"amenity": "cafe", "contact:website": "http://www.cafematz.at", "indoor_seating": "yes", "name": "Cafe Matz", "outdoor_seating": "garden"}}, {"type": "node", "id": 600938801, "lat": 48.2152798, "lon": 16.4742782, "tags": {"addr:city": "Wien", "addr:country": "AT", "addr:housenumber": "3", "addr:postcode": "1220", "addr:street": "Bergengasse", "amenity": "cafe", "name": "Timeout", "website": "http://www.espresso-co.at/"}}, {"type": "node", "id": 601411088, "lat": 48.2099753, "lon": 16.3787678, "tags": {"addr:city": "Wien", "addr:country": "AT", "addr:housenumber": "28", "addr:postcode": "1010", "addr:street": "Fleischmarkt", "amenity": "cafe", "cuisine": "international", "fixme": "Sind diese Sommer\u00f6ffnungszeiten noch aktuell?", "internet_access": "no", "name": "Caf\u00e9 AS", "opening_hours": "Mo-Fr 12:00-23:00; Sa 15:00-23:00; Jul-Aug: 10:00-24:00; Su, PH off", "smoking": "separated", "wheelchair": "limited"}}, {"type": "node", "id": 601412786, "lat": 48.2113987, "lon": 16.3760259, "tags": {"addr:city": "Wien", "addr:housenumber": "22", "addr:postcode": "1010", "addr:street": "Rotenturmstra\u00dfe", "amenity": "cafe", "brand": "Starbucks", "brand:wikidata": "Q37158", "brand:wikipedia": "en:Starbucks", "changing_table": "yes", "changing_table:location": "female_toilet", "check_date": "2022-09-09", "contact:phone": "+43 1 3366332515", "cuisine": "coffee_shop", "indoor_seating": "yes", "name": "Starbucks", "official_name": "Starbucks Coffee", "opening_hours": "Su-We 07:00-21:30; Th 07:00-22:30; Fr 08:30-22:30; Sa 08:30-21:30", "outdoor_seating": "yes", "smoking": "no", "takeaway": "yes", "wheelchair": "limited"}}, {"type": "node", "id": 611890965, "lat": 48.185979, "lon": 16.3010719, "tags": {"addr:city": "Wien", "addr:country": "AT", "addr:housenumber": "6", "addr:postcode": "1130", "addr:street": "Am Platz", "amenity": "cafe", "check_date": "2023-08-04", "diet:vegetarian": "yes", "indoor_seating": "yes", "name": "Caf\u00e9 am Platz", "opening_hours": "Mo-Fr 07:00-20:00, Sa 08:00-20:00, Su 08:00-19:00", "outdoor_seating": "yes", "phone": "+43 1 8779338", "website": "https://www.cafeamplatz13hietzing.at/", "wheelchair": "yes", "wheelchair:description": "Gastgarten mit Kieselsteinen.\r\n\r\nGepr\u00fcft von Fosch 13"}}, {"type": "node", "id": 611890966, "lat": 48.1854384, "lon": 16.3010448, "tags": {"addr:city": "Wien", "addr:housenumber": "1", "addr:postcode": "1130", "addr:street": "Maxingstra\u00dfe", "amenity": "cafe", "brand": "a\u00efda", "brand:wikidata": "Q794636", "cuisine": "coffee_shop", "diet:vegetarian": "yes", "name": "a\u00efda", "opening_hours": "Mo-Fr 08:00-18:30, Sa 08:30-19:00, Su,PH 09:00-18:00", "phone": "+43 1 8908988 204", "takeaway": "yes", "website": "https://aida.at/", "wheelchair": "yes", "wheelchair:description": "Automatische T\u00fcr."}}, {"type": "node", "id": 616693539, "lat": 48.2161481, "lon": 16.4824667}, {"type": "node", "id": 616693541, "lat": 48.2161097, "lon": 16.4826558}, {"type": "node", "id": 616693546, "lat": 48.2161548, "lon": 16.4826766}, {"type": "node", "id": 616693550, "lat": 48.2161933, "lon": 16.4824928}, {"type": "node", "id": 619522966, "lat": 48.2151404, "lon": 16.3616321, "tags": {"addr:city": "Wien", "addr:country": "AT", "addr:housenumber": "2", "addr:postcode": "1090", "addr:street": "Kolingasse", "amenity": "cafe", "brand": "a\u00efda", "brand:wikidata": "Q794636", "cuisine": "coffee_shop", "indoor_seating": "yes", "name": "a\u00efda", "opening_hours": "Mo-Sa 09:00-17:30", "outdoor_seating": "yes", "takeaway": "yes", "wheelchair": "limited"}}, {"type": "node", "id": 619522967, "lat": 48.216432, "lon": 16.3597652, "tags": {"amenity": "cafe", "indoor_seating": "yes", "name": "Roth", "opening_hours": "Mo-Su 11:00-23:00", "outdoor_seating": "yes", "payment:credit_cards": "yes", "payment:debit_cards": "yes", "toilets:wheelchair": "no", "wheelchair": "limited"}}, {"type": "node", "id": 620848232, "lat": 48.2306449, "lon": 16.3758175, "tags": {"amenity": "cafe", "name": "Lounge Olympic"}}, {"type": "node", "id": 621953646, "lat": 48.1460988, "lon": 16.3537878, "tags": {"addr:city": "Wien", "addr:housenumber": "44-46", "addr:postcode": "1230", "addr:street": "Kolbegasse", "amenity": "cafe", "cuisine": "regional;coffee_shop", "name": "Caf\u00e9 Nabucco", "payment:cash": "yes", "phone": "+4316162498", "website": "https://cafe-nabucco.metro.biz/"}}, {"type": "node", "id": 631852939, "lat": 48.1833556, "lon": 16.3288987, "tags": {"amenity": "cafe", "brand": "Segafredo", "brand:wikidata": "Q21282762", "brand:wikipedia": "it:Segafredo Zanetti", "check_date": "2022-09-03", "cuisine": "coffee_shop", "name": "Segafredo", "opening_hours": "Mo-Fr 08:00-24:00; Sa 10:00-24:00; PH,Su 10:00-23:00", "payment:mastercard": "yes", "payment:visa": "yes", "takeaway": "yes", "wheelchair": "yes"}}, {"type": "node", "id": 637819745, "lat": 48.1972375, "lon": 16.3655391, "tags": {"addr:city": "Wien", "addr:country": "AT", "addr:housenumber": "12-14A", "addr:postcode": "1040", "addr:street": "Schleifm\u00fchlgasse", "amenity": "cafe", "check_date": "2022-10-26", "cuisine": "burger;bagel;diner;donut;international;coffee_shop;cake;curry;local;breakfast;tea;austrian", "diet:vegetarian": "yes", "email": "reservierung@thepointofsale.at", "internet_access": "wlan", "name": "The Point of Sale", "opening_hours": "Mo off; Tu-Su 08:00-24:00", "payment:cash": "yes", "phone": "+43-1-890224815", "website": "https://www.thepointofsale.at/", "wheelchair": "limited"}}, {"type": "node", "id": 637822653, "lat": 48.1976235, "lon": 16.3601058, "tags": {"addr:city": "Wien", "addr:housenumber": "36", "addr:postcode": "1060", "addr:street": "Linke Wienzeile", "amenity": "cafe", "contact:email": "cafe@cafe-savoy.at", "contact:phone": "+4314303304", "contact:website": "https://www.cafe-savoy.at/", "cuisine": "austrian;regional", "indoor_seating": "yes", "internet_access": "wlan", "internet_access:fee": "no", "lgbtq": "primary", "name": "Caf\u00e9 Savoy", "opening_hours": "Mo-Th 10:00-01:00, Fr 10:00-02:00, Sa 09:00-02:00, Su 10:00-01:00", "outdoor_seating": "yes", "wheelchair": "no", "wikidata": "Q63095123", "wikipedia": "de:Caf\u00e9 Savoy"}}, {"type": "node", "id": 637825905, "lat": 48.1947999, "lon": 16.3504484, "tags": {"amenity": "cafe", "indoor_seating": "yes", "name": "Gumpendorf", "opening_hours": "Mo-Fr 07:00-18:00; Sa,Su 08:00-18:00; PH 08:00-18:00", "outdoor_seating": "no"}}, {"type": "node", "id": 653112532, "lat": 48.2112545, "lon": 16.3781476, "tags": {"amenity": "cafe", "branch": "Snack & Coffee", "brand": "Anker", "brand:wikidata": "Q557116", "diet:vegan": "yes", "diet:vegetarian": "yes", "indoor_seating": "yes", "name": "Anker", "opening_hours": "Mo-Fr 05:00-19:00; PH,Sa,Su 05:00-19:00", "outdoor_seating": "pedestrian_zone", "shop": "bakery", "wheelchair": "yes"}}, {"type": "node", "id": 656294836, "lat": 48.2210274, "lon": 16.320968, "tags": {"addr:city": "Wien", "addr:country": "AT", "addr:housenumber": "69", "addr:postcode": "1170", "addr:street": "Wattgasse", "amenity": "cafe", "cuisine": "regional", "diet:vegetarian": "yes", "name": "Cafe Times", "opening_hours": "Mo-Su 09:00-02:00", "smoking": "isolated", "website": "https://facebook.com/pages/Cafe-Times/145146498902162"}}, {"type": "node", "id": 656338880, "lat": 48.1998342, "lon": 16.365503}, {"type": "node", "id": 656338897, "lat": 48.199811, "lon": 16.3655312}, {"type": "node", "id": 656338898, "lat": 48.1998888, "lon": 16.3655667}, {"type": "node", "id": 656338899, "lat": 48.1998638, "lon": 16.3656264}, {"type": "node", "id": 668640708, "lat": 48.202479, "lon": 16.3676803, "tags": {"addr:city": "Wien", "addr:country": "AT", "addr:housenumber": "7", "addr:postcode": "1010", "addr:street": "Opernring", "amenity": "cafe", "brand": "a\u00efda", "brand:wikidata": "Q794636", "check_date": "2024-07-14", "cuisine": "coffee_shop", "diet:vegetarian": "yes", "indoor_seating": "yes", "name": "a\u00efda", "opening_hours": "Mo-Fr 07:00-21:00; Sa 08:00-21:00; Su,PH 08:00-21:00", "outdoor_seating": "yes", "payment:cash": "yes", "payment:credit_cards": "yes", "payment:debit_cards": "yes", "phone": "+43 1 8908988 208", "smoking": "outside", "takeaway": "yes", "website": "https://aida.at/?page_id=1231", "wheelchair": "limited"}}, {"type": "node", "id": 672222106, "lat": 48.1905471, "lon": 16.3969989, "tags": {"addr:city": "Wien", "addr:country": "AT", "addr:housenumber": "86", "addr:postcode": "1030", "addr:street": "Rennweg", "amenity": "cafe", "name": "das Wohnzimmer", "wheelchair": "no"}}, {"type": "node", "id": 674930844, "lat": 48.1693604, "lon": 16.3681248, "tags": {"amenity": "cafe", "name": "Prinzess", "wheelchair": "no"}}, {"type": "node", "id": 677560332, "lat": 48.1705946, "lon": 16.365687, "tags": {"amenity": "cafe", "indoor_seating": "yes", "name": "Aspava", "outdoor_seating": "no", "wheelchair": "no"}}, {"type": "node", "id": 696546391, "lat": 48.1976603, "lon": 16.365035, "tags": {"addr:city": "Wien", "addr:country": "AT", "addr:housenumber": "16", "addr:postcode": "1040", "addr:street": "Schleifm\u00fchlgasse", "amenity": "cafe", "check_date": "2024-06-23", "cuisine": "cake;coffee_shop;snackbar;breakfast", "email": "info@vollpension.wien", "indoor_seating": "yes", "name": "Vollpension", "opening_hours": "Mo-Su 08:00-22:00", "outdoor_seating": "yes", "payment:cash": "yes", "payment:credit_cards": "yes", "payment:debit_cards": "yes", "phone": "+43 1 5850464", "website": "https://www.vollpension.wien/", "wheelchair": "no"}}, {"type": "node", "id": 696747465, "lat": 48.2253514, "lon": 16.3551193, "tags": {"addr:city": "Wien", "addr:country": "AT", "addr:housenumber": "1", "addr:postcode": "1090", "addr:street": "Alserbachstra\u00dfe", "amenity": "cafe", "check_date:opening_hours": "2021-03-07", "cuisine": "coffee_shop", "indoor_seating": "yes", "internet_access": "yes", "internet_access:fee": "no", "name": "Blue Orange", "opening_hours": "Mo-Fr 07:00-21:00; Sa 08:00-21:00; Su 09:00-21:00", "outdoor_seating": "pedestrian_zone", "phone": "+4319081504", "website": "https://www.blueorange.co.at"}}, {"type": "node", "id": 701320956, "lat": 48.2027728, "lon": 16.3560109, "tags": {"addr:city": "Wien", "addr:country": "AT", "addr:housenumber": "12", "addr:postcode": "1070", "addr:street": "Siebensterngasse", "amenity": "cafe", "condition": "good", "contact:email": "office@sneakin.at", "contact:phone": "+43 664 145 51 01", "contact:website": "http://www.sneakin.at/", "cuisine": "cafe", "name": "Sneak In", "opening_hours": "Tu-Fr 11:00-20:00; Sa 10:00-18:00", "shop": "shoes", "smoking": "no", "wheelchair": "no"}}, {"type": "node", "id": 710536919, "lat": 48.2169759, "lon": 16.4873967, "tags": {"addr:city": "Wien", "addr:country": "AT", "addr:housenumber": "15", "addr:postcode": "1220", "addr:street": "Siegesplatz", "amenity": "cafe", "check_date": "2024-02-29", "contact:phone": "+43 676 4045313", "internet_access": "wlan", "name": "Hummel", "opening_hours": "Mo,Tu 07:00-19:00; We-Fr 07:00-24:00; Sa 07:00-13:00; Su,PH off", "smoking": "isolated", "website": "https://www.cafe-hummel.com/"}}, {"type": "node", "id": 727633539, "lat": 48.163427, "lon": 16.2794548, "tags": {"addr:city": "Wien", "addr:country": "AT", "addr:housenumber": "102", "addr:postcode": "1130", "addr:street": "Speisinger Stra\u00dfe", "amenity": "cafe", "indoor_seating": "yes", "name": "Cafe 1130", "old_name": "Cafe Susi", "opening_hours": "10:00-22:00", "outdoor_seating": "yes"}}, {"type": "node", "id": 766034545, "lat": 48.1818099, "lon": 16.3092951, "tags": {"addr:city": "Wien", "addr:country": "AT", "addr:postcode": "1130", "addr:street": "Sch\u00f6nbrunner Schlosspark", "amenity": "cafe", "internet_access": "wlan", "name": "Landtmann's Parkcaf\u00e9", "opening_hours": "Mo-Su 09:00-18:00", "operator": "Familie Querfeld", "phone": "+43 1 24100720", "website": "https://www.landtmann-parkcafe.at/", "wheelchair": "yes"}}, {"type": "node", "id": 766879987, "lat": 48.2104698, "lon": 16.346025, "tags": {"addr:housenumber": "2", "addr:street": "Kupkagasse", "amenity": "cafe", "check_date": "2024-04-29", "name": "tags\u00fcber", "payment:cash": "yes", "payment:credit_cards": "yes", "payment:debit_cards": "yes", "wheelchair": "no"}}, {"type": "node", "id": 767384563, "lat": 48.2054948, "lon": 16.35432, "tags": {"amenity": "cafe", "indoor_seating": "yes", "name": "Volkstheater", "opening_hours": "Mo-Th 07:00-20:00; Fr 07:00-15:00; Sa,Su,PH off", "outdoor_seating": "no", "smoking": "no", "wheelchair": "limited"}}, {"type": "node", "id": 767478375, "lat": 48.1994967, "lon": 16.3643893, "tags": {"addr:city": "Wien", "addr:country": "AT", "addr:housenumber": "6", "addr:postcode": "1060", "addr:street": "Linke Wienzeile", "alt_name": "Caf\u00e8 Illy", "amenity": "cafe", "indoor_seating": "yes", "internet_access": "wlan", "internet_access:fee": "no", "name": "Illy Caff\u00e8", "old_name": "Theatercafe", "opening_hours": "Mo-Sa 11:00-00:00", "outdoor_seating": "yes", "phone": "+43 1 295 10 01", "wheelchair": "limited"}}, {"type": "node", "id": 775798714, "lat": 48.2316036, "lon": 16.3944153, "tags": {"amenity": "cafe", "indoor_seating": "yes", "name": "Caf\u00e9 Mailibu", "outdoor_seating": "yes"}}, {"type": "node", "id": 794570859, "lat": 48.1764738, "lon": 16.3631622, "tags": {"amenity": "cafe", "name": "Friend's Treff"}}, {"type": "node", "id": 794570888, "lat": 48.1761617, "lon": 16.364022, "tags": {"amenity": "cafe", "name": "Firat"}}, {"type": "node", "id": 794570898, "lat": 48.1755684, "lon": 16.363674, "tags": {"amenity": "cafe", "name": "Caf\u00e9 Gea", "wheelchair": "no"}}, {"type": "node", "id": 797725369, "lat": 48.1779815, "lon": 16.3579528, "tags": {"addr:city": "Wien", "addr:country": "AT", "addr:housenumber": "5", "addr:postcode": "1100", "addr:street": "Triester Stra\u00dfe", "amenity": "cafe", "name": "Caf\u00e9 Roma", "opening_hours": "Mo,We 10:00-02:00, Th-Sa 10:00-04:00", "wheelchair": "no"}}, {"type": "node", "id": 801005233, "lat": 48.1995143, "lon": 16.3971697, "tags": {"addr:city": "Wien", "addr:country": "AT", "addr:housenumber": "2-14/8", "addr:postcode": "1030", "addr:street": "Apostelgasse", "amenity": "cafe", "check_date": "2023-09-12", "internet_access": "wlan", "name": "cafe2k", "opening_hours": "Mo-Fr 11:00-02:00; Sa-Su 14:00-02:00", "wheelchair": "limited"}}, {"type": "node", "id": 802389619, "lat": 48.2055506, "lon": 16.3947582, "tags": {"addr:city": "Wien", "addr:housenumber": "7", "addr:postcode": "1030", "addr:street": "Rasumofskygasse", "amenity": "cafe", "indoor_seating": "yes", "name": "Cafe Zartl", "opening_hours": "07:00-22:00", "outdoor_seating": "yes", "phone": "+43 1 9438972", "website": "https://www.cafe-zartl.at/", "wheelchair": "limited", "wikidata": "Q1025679", "wikipedia": "de:Caf\u00e9 Zartl"}}, {"type": "node", "id": 807251283, "lat": 48.1818997, "lon": 16.359487, "tags": {"access": "private", "addr:city": "Wien", "addr:country": "AT", "addr:housenumber": "4", "addr:postcode": "1050", "addr:street": "Schusswallgasse", "amenity": "cafe", "name": "Tugra anatolischer Verein", "wheelchair": "yes"}}, {"type": "node", "id": 808478292, "lat": 48.1762802, "lon": 16.3658752, "tags": {"addr:city": "Wien", "addr:country": "AT", "addr:housenumber": "122", "addr:postcode": "1100", "addr:street": "Quellenstra\u00dfe", "amenity": "cafe", "cuisine": "ice_cream", "name": "Charly Temmel"}}, {"type": "node", "id": 808734710, "lat": 48.1841192, "lon": 16.373882, "tags": {"amenity": "cafe", "check_date": "2025-03-16", "indoor_seating": "yes", "name": "Espresso Joschi", "opening_hours:signed": "no", "outdoor_seating": "yes", "wheelchair": "no"}}, {"type": "node", "id": 808734749, "lat": 48.1839734, "lon": 16.374081, "tags": {"amenity": "cafe", "check_date": "2025-03-16", "check_date:opening_hours": "2025-03-16", "indoor_seating": "yes", "name": "Monte", "opening_hours": "Mo-Su 08:00-02:00", "outdoor_seating": "yes", "toilets:wheelchair": "no", "wheelchair": "yes"}}, {"type": "node", "id": 810356720, "lat": 48.1751599, "lon": 16.3551434, "tags": {"amenity": "cafe", "name": "Caf\u00e9 B17", "wheelchair": "no"}}, {"type": "node", "id": 810356761, "lat": 48.1761838, "lon": 16.3561152, "tags": {"amenity": "cafe", "name": "Dalli-Dalli"}}, {"type": "node", "id": 821210016, "lat": 48.1756784, "lon": 16.3710167, "tags": {"amenity": "cafe"}}, {"type": "node", "id": 824832612, "lat": 48.1966854, "lon": 16.4093684, "tags": {"addr:city": "Wien", "addr:country": "AT", "addr:postcode": "1030", "amenity": "cafe", "check_date": "2024-11-21", "check_date:opening_hours": "2024-11-21", "name": "Zum neuen Gl\u00fcck", "opening_hours": "Mo-Sa 08:30-22:00; Su 09:00-20:00", "wheelchair": "no"}}, {"type": "node", "id": 828027113, "lat": 48.1959083, "lon": 16.40953, "tags": {"addr:city": "Wien", "addr:country": "AT", "addr:housenumber": "3", "addr:postcode": "1030", "addr:street": "Schlachthausgasse", "amenity": "cafe", "indoor_seating": "yes", "name": "Micky's Caf\u00e9", "opening_hours": "Tu-Su 07:00-20:00", "outdoor_seating": "yes"}}, {"type": "node", "id": 830477223, "lat": 48.1790643, "lon": 16.3635479, "tags": {"amenity": "cafe", "name": "Caf\u00e9-Imbiss"}}, {"type": "node", "id": 839473189, "lat": 48.2086459, "lon": 16.3752673, "tags": {"addr:city": "Wien", "addr:country": "AT", "addr:housenumber": "10", "addr:postcode": "1010", "addr:street": "Wollzeile", "amenity": "cafe", "contact:phone": "+43 1 512 57 65", "diet:vegetarian": "yes", "indoor_seating": "yes", "name": "Diglas", "opening_hours": "Mo-Fr 08:00-22:30; Sa 09:00-22:30; PH off", "outdoor_seating": "yes", "payment:credit_cards": "yes", "payment:debit_cards": "yes", "toilets:wheelchair": "no", "website": "https://www.diglas.at", "wheelchair": "no", "wheelchair:description": "3 Stufen am Eingang, eng, mit Hilfe m\u00f6glich mit schmalem Rollstuhl, Personal hilfsbereit", "wikidata": "Q252279"}}, {"type": "node", "id": 844543582, "lat": 48.1969984, "lon": 16.3657698, "tags": {"amenity": "cafe", "check_date": "2025-03-11", "check_date:opening_hours": "2025-03-11", "diet:gluten_free": "yes", "diet:vegan": "yes", "diet:vegetarian": "yes", "indoor_seating": "yes", "internet_access": "wlan", "name": "Blue Orange", "opening_hours": "Mo-Fr 07:30-18:00; Sa 08:00-18:00; Su,PH 09:00-18:00", "outdoor_seating": "yes", "wheelchair": "limited"}}, {"type": "node", "id": 845973629, "lat": 48.2260724, "lon": 16.3509991, "tags": {"amenity": "cafe", "check_date": "2022-10-30", "check_date:opening_hours": "2023-12-14", "indoor_seating": "yes", "name": "Hera", "opening_hours": "Mo-Fr 08:00-23:00+, Sa,Su 12:00-23:00+", "outdoor_seating": "yes", "wheelchair": "no"}}, {"type": "node", "id": 847071492, "lat": 48.1962135, "lon": 16.4078693, "tags": {"amenity": "cafe", "check_date": "2024-11-11", "check_date:opening_hours": "2024-11-11", "name": "Terramonte", "opening_hours": "Mo-We,Fr,Sa 17:00-02:00"}}, {"type": "node", "id": 848217223, "lat": 48.1758571, "lon": 16.3719922, "tags": {"amenity": "cafe"}}, {"type": "node", "id": 848217306, "lat": 48.175823, "lon": 16.3724832, "tags": {"amenity": "cafe", "name": "Alanya"}}, {"type": "node", "id": 848389379, "lat": 48.1764289, "lon": 16.3734359, "tags": {"amenity": "cafe", "name": "Espresso Herbert"}}, {"type": "node", "id": 893028434, "lat": 48.2035189, "lon": 16.3758028, "tags": {"addr:city": "Wien", "addr:country": "AT", "addr:housenumber": "16", "addr:postcode": "1010", "addr:street": "Johannesgasse", "amenity": "cafe", "cuisine": "regional", "internet_access": "wlan", "name": "Hegelhof", "opening_hours": "Tu-Sa 09:00-20:00", "website": "https://www.cafehegelhof.com/", "wheelchair": "no"}}, {"type": "node", "id": 893324046, "lat": 48.1979439, "lon": 16.3174111, "tags": {"addr:city": "Wien", "addr:country": "AT", "addr:housenumber": "28", "addr:postcode": "1150", "addr:street": "Meiselstra\u00dfe", "amenity": "cafe", "name": "Noli", "opening_hours": "Mo-Sa 16:00-01:00", "website": "http://www.facebook.com/pages/Wien/NOLI-cafe-bar/111194265580221", "wheelchair": "yes"}}, {"type": "node", "id": 894087120, "lat": 48.2032311, "lon": 16.3759528, "tags": {"addr:city": "Wien", "addr:country": "AT", "addr:housenumber": "4", "addr:postcode": "1010", "addr:street": "Schubertring", "amenity": "cafe", "man_made": "surveillance", "name": "Kotor", "surveillance": "indoor", "wheelchair": "no"}}, {"type": "node", "id": 897441890, "lat": 48.1733809, "lon": 16.356445, "tags": {"alt_name": "Caf\u00e9 Ali Baba", "amenity": "cafe", "name": "Angeli Eck"}}, {"type": "node", "id": 897441922, "lat": 48.1739106, "lon": 16.3552465, "tags": {"amenity": "cafe", "name": "Caf\u00e9 Stress"}}, {"type": "node", "id": 897648092, "lat": 48.1764641, "lon": 16.3565439, "tags": {"addr:city": "Wien", "addr:country": "AT", "addr:housenumber": "17", "addr:postcode": "1100", "addr:street": "Triester Stra\u00dfe", "amenity": "cafe", "name": "\u015eamata"}}, {"type": "node", "id": 902496940, "lat": 48.2054152, "lon": 16.3748203, "tags": {"addr:city": "Wien", "addr:country": "AT", "addr:housenumber": "16", "addr:postcode": "1010", "addr:street": "Seilerst\u00e4tte", "amenity": "cafe", "check_date": "2023-05-13", "cuisine": "regional", "name": "Cafe-Confiserie Ronacher", "opening_hours": "Tu,We 14:00-19:00; Th-Sa 14:00-22:00; Su,Mo off", "shop": "confectionery", "wheelchair": "no"}}, {"type": "node", "id": 905829108, "lat": 48.1715151, "lon": 16.3569686, "tags": {"amenity": "cafe", "name": "Places", "wheelchair": "no"}}, {"type": "node", "id": 912021105, "lat": 48.2016741, "lon": 16.3782002, "tags": {"addr:city": "Wien", "addr:country": "AT", "addr:housenumber": "22", "addr:postcode": "1030", "addr:street": "Lothringerstra\u00dfe", "amenity": "cafe", "cuisine": "styrian", "name": "Schlossberg"}}, {"type": "node", "id": 915174270, "lat": 48.1795834, "lon": 16.3739881, "tags": {"addr:city": "Wien", "addr:country": "AT", "addr:housenumber": "39", "addr:postcode": "1100", "addr:street": "Laxenburger Stra\u00dfe", "amenity": "cafe", "cuisine": "ice_cream", "name": "Gavaz", "opening_hours": "Mo-Su 11:00-21:00", "website": "http://www.eis-gavaz.com/", "wheelchair": "limited"}}, {"type": "node", "id": 915174274, "lat": 48.179251, "lon": 16.3739881, "tags": {"amenity": "cafe", "name": "Millennium", "opening_hours": "Mo-Fr 07:00-02:00, Sa 10:00-02:00, Su 12:00-02:00"}}, {"type": "node", "id": 916277781, "lat": 48.1757657, "lon": 16.3740863, "tags": {"amenity": "cafe", "indoor_seating": "yes", "name": "Bijou", "outdoor_seating": "yes"}}, {"type": "node", "id": 920427496, "lat": 48.2105441, "lon": 16.3749331, "tags": {"amenity": "cafe", "check_date:opening_hours": "2023-04-29", "diet:vegetarian": "yes", "name": "Daniel Moser", "opening_hours:signed": "no", "wheelchair": "limited"}}, {"type": "node", "id": 923938964, "lat": 48.2015231, "lon": 16.3802689, "tags": {"addr:city": "Wien", "addr:country": "AT", "addr:housenumber": "15", "addr:postcode": "1030", "addr:street": "Am Heumarkt", "amenity": "cafe", "name": "Caf\u00e9 am Heumarkt", "opening_hours": "Mo-Fr 10:00-23:00; PH,Sa,Su off", "wheelchair": "no"}}, {"type": "node", "id": 928623392, "lat": 48.176663, "lon": 16.3711038, "tags": {"amenity": "cafe", "indoor_seating": "yes", "name": "Caf\u00e9 Uzay", "outdoor_seating": "no", "wheelchair": "no"}}, {"type": "node", "id": 929515605, "lat": 48.1770362, "lon": 16.3691408, "tags": {"amenity": "cafe", "check_date": "2023-08-08", "name": "Caf\u00e9 Respect", "wheelchair": "no"}}, {"type": "node", "id": 930756885, "lat": 48.1781513, "lon": 16.3734715, "tags": {"amenity": "cafe", "name": "Steh-Caf\u00e9"}}, {"type": "node", "id": 931460381, "lat": 48.1787521, "lon": 16.369061, "tags": {"amenity": "cafe", "name": "Caf\u00e9 Can"}}, {"type": "node", "id": 932113280, "lat": 48.2223873, "lon": 16.4747932}, {"type": "node", "id": 932960821, "lat": 48.1788268, "lon": 16.3678175, "tags": {"amenity": "cafe", "name": "Graffiti", "wheelchair": "no"}}, {"type": "node", "id": 941388867, "lat": 48.2458503, "lon": 16.4621498, "tags": {"addr:city": "Wien", "addr:country": "AT", "addr:postcode": "1220", "addr:street": "Gewerbeparkstra\u00dfe", "addr:subdistrict": "Stadlau", "amenity": "cafe", "cuisine": "cake", "name": "a\u00efda"}}, {"type": "node", "id": 948339782, "lat": 48.1783297, "lon": 16.3672247, "tags": {"addr:housenumber": "10", "addr:street": "Herzgasse", "amenity": "cafe", "check_date": "2023-08-07", "name": "Cafe Karadeniz"}}, {"type": "node", "id": 948462336, "lat": 48.2067834, "lon": 16.3717382, "tags": {"addr:city": "Wien", "addr:country": "AT", "addr:housenumber": "13-15", "addr:postcode": "1010", "addr:street": "K\u00e4rntner Stra\u00dfe", "amenity": "cafe", "check_date": "2024-09-25", "email": "kaerntnerstrasse@sluka.at", "indoor_seating": "yes", "name": "Conditorei Sluka", "opening_hours": "Mo-Th 08:00-20:00; Fr 08:00-21:00; Sa 09:00-21:00; PH,Su 10:00-17:00", "outdoor_seating": "yes", "payment:cash": "yes", "payment:maestro": "yes", "payment:mastercard": "yes", "payment:visa": "yes", "phone": "+43 1 5124963500", "shop": "pastry", "toilets:wheelchair": "no", "website": "https://www.sluka.at", "wheelchair": "yes"}}, {"type": "node", "id": 950536072, "lat": 48.2053098, "lon": 16.3853964, "tags": {"addr:city": "Wien", "addr:country": "AT", "addr:housenumber": "13", "addr:postcode": "1030", "addr:street": "Invalidenstra\u00dfe", "amenity": "cafe", "check_date:opening_hours": "2023-09-09", "indoor_seating": "yes", "name": "Cafe Caramel", "opening_hours": "Mo-Fr 07:00-22:00; Sa 09:00-15:00; PH,Su off", "outdoor_seating": "sidewalk", "payment:credit_cards": "no", "payment:debit_cards": "no", "wheelchair": "no"}}, {"type": "node", "id": 954998679, "lat": 48.1604991, "lon": 16.3273459, "tags": {"amenity": "cafe", "name": "Arkaden Cafe", "wheelchair": "no"}},